{
"type": "FeatureCollection",
"features": [
{ "type": "Feature", "properties": { "Operator": "Abu Dhabi Polymers Company Ltd. (Borouge)", "City": "Ruwais", "Country": "United Arab Emirates", "Region": "Middle East", "city_lat": 24.0944621, "city_lon": 52.7346371, "lat": 24.4982749, "lon": 54.3667104 }, "geometry": { "type": "Point", "coordinates": [ 54.3667104, 24.4982749 ] } },
{ "type": "Feature", "properties": { "Operator": "Advanced Petrochemical Company", "City": "Al Jubail", "Country": "Saudi Arabia", "Region": "Middle East", "city_lat": 26.9597709, "city_lon": 49.5687416, "lat": 27.0055321, "lon": 49.551924 }, "geometry": { "type": "Point", "coordinates": [ 49.551924, 27.0055321 ] } },
{ "type": "Feature", "properties": { "Operator": "Al Waha Petrochemicals Company", "City": "Al Jubail", "Country": "Saudi Arabia", "Region": "Middle East", "city_lat": 26.9597709, "city_lon": 49.5687416, "lat": 27.0017403, "lon": 49.5670709 }, "geometry": { "type": "Point", "coordinates": [ 49.5670709, 27.0017403 ] } },
{ "type": "Feature", "properties": { "Operator": "Alco-Naphtha", "City": "Kaliningrad", "Country": "Russian Federation", "Region": "Russia and the Caspian", "city_lat": 54.7104264, "city_lon": 20.4522144, "lat": 54.6935911, "lon": 20.3252495 }, "geometry": { "type": "Point", "coordinates": [ 20.3252495, 54.6935911 ] } },
{ "type": "Feature", "properties": { "Operator": "Alpek (Alfa)", "City": "Montreal", "Country": "Canada", "Region": "North America", "city_lat": 45.5016889, "city_lon": -73.567256, "lat": 25.6369466, "lon": -100.3613688 }, "geometry": { "type": "Point", "coordinates": [ -100.3613688, 25.6369466 ] } },
{ "type": "Feature", "properties": { "Operator": "Alpek (Alfa)", "City": "Wilton", "Country": "United Kingdom", "Region": "Europe", "city_lat": 51.079018, "city_lon": -1.862598, "lat": 25.6369466, "lon": -100.3613688 }, "geometry": { "type": "Point", "coordinates": [ -100.3613688, 25.6369466 ] } },
{ "type": "Feature", "properties": { "Operator": "Alpek\/DAK", "City": "Altamira", "Country": "Mexico", "Region": "North America", "city_lat": 22.4077462, "city_lon": -97.9211555, "lat": 22.419686, "lon": -97.889428 }, "geometry": { "type": "Point", "coordinates": [ -97.889428, 22.419686 ] } },
{ "type": "Feature", "properties": { "Operator": "Alpek\/DAK", "City": "Cosoleacaque", "Country": "Mexico", "Region": "North America", "city_lat": 17.9956998, "city_lon": -94.6372866, "lat": 18.0371939, "lon": -94.5942387 }, "geometry": { "type": "Point", "coordinates": [ -94.5942387, 18.0371939 ] } },
{ "type": "Feature", "properties": { "Operator": "Alpek\/DAK", "City": "Ipojuca", "Country": "Brazil", "Region": "Latin America and the Caribbean", "city_lat": -8.4627496, "city_lon": -35.0828588, "lat": 35.0889729, "lon": -80.8471921 }, "geometry": { "type": "Point", "coordinates": [ -80.8471921, 35.0889729 ] } },
{ "type": "Feature", "properties": { "Operator": "Alpek\/DAK", "City": "Zarate", "Country": "Argentina", "Region": "Latin America and the Caribbean", "city_lat": -34.0957811, "city_lon": -59.0242302, "lat": -34.0557839, "lon": -59.0841541 }, "geometry": { "type": "Point", "coordinates": [ -59.0841541, -34.0557839 ] } },
{ "type": "Feature", "properties": { "Operator": "Amir Kabir Petrochemical Company", "City": "Bandar Imam", "Country": "Iran", "Region": "Middle East", "city_lat": 30.4472068, "city_lon": 49.0716096, "lat": 30.4489847, "lon": 49.0856115 }, "geometry": { "type": "Point", "coordinates": [ 49.0856115, 30.4489847 ] } },
{ "type": "Feature", "properties": { "Operator": "Angarsk Polymer Plant", "City": "Angarsk", "Country": "Russian Federation", "Region": "Russia and the Caspian", "city_lat": 52.5155702, "city_lon": 103.91716, "lat": 52.588218, "lon": 103.9271451 }, "geometry": { "type": "Point", "coordinates": [ 103.9271451, 52.588218 ] } },
{ "type": "Feature", "properties": { "Operator": "Anhui Tianda Petrochemical Co., Ltd.", "City": "Chuzhou", "Country": "China", "Region": "Asia", "city_lat": 32.253425, "city_lon": 118.328321, "lat": 32.876615, "lon": 118.933067 }, "geometry": { "type": "Point", "coordinates": [ 118.933067, 32.876615 ] } },
{ "type": "Feature", "properties": { "Operator": "Anyang Longyu New Material Company", "City": "Anyang", "Country": "China", "Region": "Asia", "city_lat": 36.097577, "city_lon": 114.392392, "lat": 36.097577, "lon": 114.392392 }, "geometry": { "type": "Point", "coordinates": [ 114.392392, 36.097577 ] } },
{ "type": "Feature", "properties": { "Operator": "Arabian Petrochemical Company - (Petrokemya)", "City": "Al Jubail", "Country": "Saudi Arabia", "Region": "Middle East", "city_lat": 26.9597709, "city_lon": 49.5687416, "lat": 27.0300978, "lon": 49.6082765 }, "geometry": { "type": "Point", "coordinates": [ 49.6082765, 27.0300978 ] } },
{ "type": "Feature", "properties": { "Operator": "Arya Petrochemical Polymer Co.", "City": "Pars Special Economic Energy Zone", "Country": "Iran", "Region": "Middle East", "city_lat": 27.5139054, "city_lon": 52.5758902, "lat": 27.5423248, "lon": 52.554539 }, "geometry": { "type": "Point", "coordinates": [ 52.554539, 27.5423248 ] } },
{ "type": "Feature", "properties": { "Operator": "Asahi Kasei Chemicals Corporation", "City": "Mizushima", "Country": "Japan", "Region": "Asia", "city_lat": 36.637423, "city_lon": 136.9056142, "lat": 35.5261313, "lon": 139.7493764 }, "geometry": { "type": "Point", "coordinates": [ 139.749376399999989, 35.5261313 ] } },
{ "type": "Feature", "properties": { "Operator": "Asia Polymer Corporation", "City": "Lin Yuan", "Country": "Taiwan", "Region": "Asia", "city_lat": 22.4986756, "city_lon": 120.4011911, "lat": 22.50283, "lon": 120.40739 }, "geometry": { "type": "Point", "coordinates": [ 120.40739, 22.50283 ] } },
{ "type": "Feature", "properties": { "Operator": "BASF-YPC Company Limited", "City": "Nanjing", "Country": "China", "Region": "Asia", "city_lat": 32.060255, "city_lon": 118.796877, "lat": 32.2389761, "lon": 118.7756314 }, "geometry": { "type": "Point", "coordinates": [ 118.7756314, 32.2389761 ] } },
{ "type": "Feature", "properties": { "Operator": "Bandar Imam Petrochemical Company Ltd.", "City": "Bandar Imam", "Country": "Iran", "Region": "Middle East", "city_lat": 30.4472068, "city_lon": 49.0716096, "lat": 30.4443185, "lon": 49.1012176 }, "geometry": { "type": "Point", "coordinates": [ 49.101217600000012, 30.4443185 ] } },
{ "type": "Feature", "properties": { "Operator": "Bangkok Polyester", "City": "Rayong", "Country": "Thailand", "Region": "Asia", "city_lat": 12.6813957, "city_lon": 101.2816261, "lat": 12.8105005, "lon": 101.1393987 }, "geometry": { "type": "Point", "coordinates": [ 101.1393987, 12.8105005 ] } },
{ "type": "Feature", "properties": { "Operator": "Basell Orlen Polyolefins Sp. z o.o. (BOP)", "City": "Plock", "Country": "Poland", "Region": "Europe", "city_lat": 52.5463446, "city_lon": 19.7065364, "lat": 52.578081, "lon": 19.6513546 }, "geometry": { "type": "Point", "coordinates": [ 19.6513546, 52.578081 ] } },
{ "type": "Feature", "properties": { "Operator": "Beijing Huamei Polymer Co., Ltd", "City": "Fangshan", "Country": "China", "Region": "Asia", "city_lat": 39.749144, "city_lon": 116.143267, "lat": 39.7206006, "lon": 115.9723758 }, "geometry": { "type": "Point", "coordinates": [ 115.9723758, 39.7206006 ] } },
{ "type": "Feature", "properties": { "Operator": "Beijing Organics Chemical Plant", "City": "Fangshan", "Country": "China", "Region": "Asia", "city_lat": 39.749144, "city_lon": 116.143267, "lat": 40.000606, "lon": 116.351938 }, "geometry": { "type": "Point", "coordinates": [ 116.351938, 40.000606 ] } },
{ "type": "Feature", "properties": { "Operator": "Binh Son Refining and Petrochemical Company Limited", "City": "Binh Son", "Country": "Vietnam", "Region": "Asia", "city_lat": 15.3166491, "city_lon": 108.7838572, "lat": 15.1205377, "lon": 108.7876809 }, "geometry": { "type": "Point", "coordinates": [ 108.7876809, 15.1205377 ] } },
{ "type": "Feature", "properties": { "Operator": "Borealis AG", "City": "Antwerp", "Country": "Belgium", "Region": "Europe", "city_lat": 51.2194475, "city_lon": 4.4024643, "lat": 51.2686704, "lon": 4.2697056 }, "geometry": { "type": "Point", "coordinates": [ 4.2697056, 51.2686704 ] } },
{ "type": "Feature", "properties": { "Operator": "Borealis AG", "City": "Beringen", "Country": "Belgium", "Region": "Europe", "city_lat": 51.04793, "city_lon": 5.21862, "lat": 51.0618363, "lon": 5.1790616 }, "geometry": { "type": "Point", "coordinates": [ 5.1790616, 51.0618363 ] } },
{ "type": "Feature", "properties": { "Operator": "Borealis AG", "City": "Geleen", "Country": "Netherlands", "Region": "Europe", "city_lat": 50.9672139, "city_lon": 5.8277247, "lat": 50.9591749, "lon": 5.7907173 }, "geometry": { "type": "Point", "coordinates": [ 5.7907173, 50.9591749 ] } },
{ "type": "Feature", "properties": { "Operator": "Borealis AG", "City": "Schwechat", "Country": "Austria", "Region": "Europe", "city_lat": 48.1409268, "city_lon": 16.4763778, "lat": 48.1386927, "lon": 16.5085712 }, "geometry": { "type": "Point", "coordinates": [ 16.5085712, 48.1386927 ] } },
{ "type": "Feature", "properties": { "Operator": "Borealis AG", "City": "Stenungsund", "Country": "Sweden", "Region": "Europe", "city_lat": 58.0678388, "city_lon": 11.8294345, "lat": 58.0760437, "lon": 11.840727 }, "geometry": { "type": "Point", "coordinates": [ 11.840727, 58.0760437 ] } },
{ "type": "Feature", "properties": { "Operator": "Borealis AG", "City": "Zwijndrecht", "Country": "Belgium", "Region": "Europe", "city_lat": 51.2164116, "city_lon": 4.3335905, "lat": 51.2686704, "lon": 4.2697056 }, "geometry": { "type": "Point", "coordinates": [ 4.2697056, 51.2686704 ] } },
{ "type": "Feature", "properties": { "Operator": "Borealis Polymere GmbH", "City": "Burghausen", "Country": "Germany", "Region": "Europe", "city_lat": 48.1725613, "city_lon": 12.8310753, "lat": 48.197681, "lon": 12.838838 }, "geometry": { "type": "Point", "coordinates": [ 12.838838, 48.197681 ] } },
{ "type": "Feature", "properties": { "Operator": "Borealis Polymers Oy", "City": "Porvoo", "Country": "Finland", "Region": "Europe", "city_lat": 60.3931919, "city_lon": 25.6652739, "lat": 60.3007018, "lon": 25.4944129 }, "geometry": { "type": "Point", "coordinates": [ 25.4944129, 60.3007018 ] } },
{ "type": "Feature", "properties": { "Operator": "Brahmaputra Cracker and Polymers Ltd", "City": "Lepetkata", "Country": "India", "Region": "Asia", "city_lat": 27.4034788, "city_lon": 94.8809985, "lat": 27.367468, "lon": 94.8857804 }, "geometry": { "type": "Point", "coordinates": [ 94.8857804, 27.367468 ] } },
{ "type": "Feature", "properties": { "Operator": "Braskem", "City": "La Porte", "Country": "United States", "Region": "North America", "city_lat": 29.6657838, "city_lon": -95.0193728, "lat": 29.7040549, "lon": -95.0799589 }, "geometry": { "type": "Point", "coordinates": [ -95.0799589, 29.7040549 ] } },
{ "type": "Feature", "properties": { "Operator": "Braskem", "City": "Schkopau", "Country": "Germany", "Region": "Europe", "city_lat": 51.3900745, "city_lon": 11.9851505, "lat": 51.3933576, "lon": 11.9569539 }, "geometry": { "type": "Point", "coordinates": [ 11.9569539, 51.393357599999987 ] } },
{ "type": "Feature", "properties": { "Operator": "Braskem", "City": "Wesseling", "Country": "Germany", "Region": "Europe", "city_lat": 50.8255624, "city_lon": 6.9725385, "lat": 50.8416237, "lon": 6.947609 }, "geometry": { "type": "Point", "coordinates": [ 6.947609, 50.8416237 ] } },
{ "type": "Feature", "properties": { "Operator": "Braskem Idesa S.A.P.I.", "City": "Nanchital", "Country": "Mexico", "Region": "North America", "city_lat": 18.0714575, "city_lon": -94.4082913, "lat": 18.0675531, "lon": -94.3738807 }, "geometry": { "type": "Point", "coordinates": [ -94.3738807, 18.0675531 ] } },
{ "type": "Feature", "properties": { "Operator": "Braskem S.A.", "City": "Camacari", "Country": "Brazil", "Region": "Latin America and the Caribbean", "city_lat": -12.6971776, "city_lon": -38.3331983, "lat": -12.6512135, "lon": -38.3163995 }, "geometry": { "type": "Point", "coordinates": [ -38.3163995, -12.6512135 ] } },
{ "type": "Feature", "properties": { "Operator": "Braskem S.A.", "City": "Cubatao", "Country": "Brazil", "Region": "Latin America and the Caribbean", "city_lat": -23.8916151, "city_lon": -46.4244141, "lat": -23.8563112, "lon": -46.4135777 }, "geometry": { "type": "Point", "coordinates": [ -46.4135777, -23.8563112 ] } },
{ "type": "Feature", "properties": { "Operator": "Braskem S.A.", "City": "Duque de Caxias", "Country": "Brazil", "Region": "Latin America and the Caribbean", "city_lat": -22.7862985, "city_lon": -43.3053106, "lat": -22.7152182, "lon": -43.2401768 }, "geometry": { "type": "Point", "coordinates": [ -43.2401768, -22.7152182 ] } },
{ "type": "Feature", "properties": { "Operator": "Braskem S.A.", "City": "Freeport", "Country": "United States", "Region": "North America", "city_lat": 43.8570065, "city_lon": -70.1031201, "lat": 39.8153977, "lon": -75.4292477 }, "geometry": { "type": "Point", "coordinates": [ -75.4292477, 39.8153977 ] } },
{ "type": "Feature", "properties": { "Operator": "Braskem S.A.", "City": "La Porte", "Country": "United States", "Region": "North America", "city_lat": 29.6657838, "city_lon": -95.0193728, "lat": 29.7040549, "lon": -95.0799589 }, "geometry": { "type": "Point", "coordinates": [ -95.0799589, 29.7040549 ] } },
{ "type": "Feature", "properties": { "Operator": "Braskem S.A.", "City": "Marcus Hook", "Country": "United States", "Region": "North America", "city_lat": 39.8192794, "city_lon": -75.4185272, "lat": 39.8153977, "lon": -75.4292477 }, "geometry": { "type": "Point", "coordinates": [ -75.4292477, 39.8153977 ] } },
{ "type": "Feature", "properties": { "Operator": "Braskem S.A.", "City": "Maua", "Country": "Brazil", "Region": "Latin America and the Caribbean", "city_lat": -23.666558, "city_lon": -46.4599145, "lat": -23.6420529, "lon": -46.4876408 }, "geometry": { "type": "Point", "coordinates": [ -46.4876408, -23.6420529 ] } },
{ "type": "Feature", "properties": { "Operator": "Braskem S.A.", "City": "Neal", "Country": "United States", "Region": "North America", "city_lat": 42.1049974, "city_lon": -72.5834803, "lat": 39.8153977, "lon": -75.4292477 }, "geometry": { "type": "Point", "coordinates": [ -75.4292477, 39.8153977 ] } },
{ "type": "Feature", "properties": { "Operator": "Braskem S.A.", "City": "Paulinia", "Country": "Brazil", "Region": "Latin America and the Caribbean", "city_lat": -22.7409594, "city_lon": -47.174281, "lat": -22.7179952, "lon": -47.1352488 }, "geometry": { "type": "Point", "coordinates": [ -47.1352488, -22.7179952 ] } },
{ "type": "Feature", "properties": { "Operator": "Braskem S.A.", "City": "Santo Andre", "Country": "Brazil", "Region": "Latin America and the Caribbean", "city_lat": -23.6742228, "city_lon": -46.5436003, "lat": -23.6420529, "lon": -46.4876408 }, "geometry": { "type": "Point", "coordinates": [ -46.4876408, -23.6420529 ] } },
{ "type": "Feature", "properties": { "Operator": "Braskem S.A.", "City": "Seadrift", "Country": "United States", "Region": "North America", "city_lat": 28.4152807, "city_lon": -96.7135933, "lat": 28.5067552, "lon": -96.7724205 }, "geometry": { "type": "Point", "coordinates": [ -96.7724205, 28.5067552 ] } },
{ "type": "Feature", "properties": { "Operator": "Braskem S.A.", "City": "Triunfo", "Country": "Brazil", "Region": "Latin America and the Caribbean", "city_lat": -29.9380706, "city_lon": -51.7153171, "lat": -29.8872356, "lon": -51.3918975 }, "geometry": { "type": "Point", "coordinates": [ -51.3918975, -29.8872356 ] } },
{ "type": "Feature", "properties": { "Operator": "CNOOC and Shell Petrochemicals Company Limited (CSPC)", "City": "Huizhou", "Country": "China", "Region": "Asia", "city_lat": 23.112257, "city_lon": 114.415801, "lat": 23.112257, "lon": 114.415801 }, "geometry": { "type": "Point", "coordinates": [ 114.415801, 23.112257 ] } },
{ "type": "Feature", "properties": { "Operator": "Cangzhou Huahai Refinery and Petrochemical Co.,Ltd", "City": "Cangzhou", "Country": "China", "Region": "Asia", "city_lat": 38.304477, "city_lon": 116.838834, "lat": 38.334258, "lon": 116.873336 }, "geometry": { "type": "Point", "coordinates": [ 116.873336, 38.334258 ] } },
{ "type": "Feature", "properties": { "Operator": "Carmel Olefins Ltd.", "City": "Haifa", "Country": "Israel", "Region": "Middle East", "city_lat": 32.7940463, "city_lon": 34.989571, "lat": 32.7876246, "lon": 35.0612825 }, "geometry": { "type": "Point", "coordinates": [ 35.0612825, 32.7876246 ] } },
{ "type": "Feature", "properties": { "Operator": "Celanese", "City": "Edmonton", "Country": "Canada", "Region": "North America", "city_lat": 53.5461245, "city_lon": -113.4938229, "lat": 53.5404518, "lon": -113.4092706 }, "geometry": { "type": "Point", "coordinates": [ -113.4092706, 53.5404518 ] } },
{ "type": "Feature", "properties": { "Operator": "Celanese", "City": "Nanjing", "Country": "China", "Region": "Asia", "city_lat": 32.060255, "city_lon": 118.796877, "lat": 31.236449, "lon": 121.5094 }, "geometry": { "type": "Point", "coordinates": [ 121.5094, 31.236449 ] } },
{ "type": "Feature", "properties": { "Operator": "Celanese EVA Performance Polymers", "City": "Edmonton", "Country": "Canada", "Region": "North America", "city_lat": 53.5461245, "city_lon": -113.4938229, "lat": 53.5404518, "lon": -113.4092706 }, "geometry": { "type": "Point", "coordinates": [ -113.4092706, 53.5404518 ] } },
{ "type": "Feature", "properties": { "Operator": "Chevron Phillips Chemical Company LLC", "City": "Cedar Bayou", "Country": "United States", "Region": "North America", "city_lat": 29.7755031, "city_lon": -94.9421483, "lat": 29.8171288, "lon": -94.9342159 }, "geometry": { "type": "Point", "coordinates": [ -94.9342159, 29.8171288 ] } },
{ "type": "Feature", "properties": { "Operator": "Chevron Phillips Chemical Company LLC", "City": "Old Ocean", "Country": "United States", "Region": "North America", "city_lat": 29.0799726, "city_lon": -95.749673, "lat": 29.081533, "lon": -95.741841 }, "geometry": { "type": "Point", "coordinates": [ -95.741841, 29.081533 ] } },
{ "type": "Feature", "properties": { "Operator": "Chevron Phillips Chemical Company LLC", "City": "Orange", "Country": "United States", "Region": "North America", "city_lat": 33.7879139, "city_lon": -117.8531007, "lat": 35.6987354, "lon": -101.3587303 }, "geometry": { "type": "Point", "coordinates": [ -101.3587303, 35.6987354 ] } },
{ "type": "Feature", "properties": { "Operator": "Chevron Phillips Chemical Company LLC", "City": "Pasadena", "Country": "United States", "Region": "North America", "city_lat": 34.1477849, "city_lon": -118.1445155, "lat": 35.6987354, "lon": -101.3587303 }, "geometry": { "type": "Point", "coordinates": [ -101.3587303, 35.6987354 ] } },
{ "type": "Feature", "properties": { "Operator": "Chevron Phillips Singapore Chemicals (Pte) Ltd", "City": "Pulau Ayer Merbau", "Country": "Singapore", "Region": "Asia", "city_lat": 1.2677778, "city_lon": 103.7163889, "lat": 1.2619451, "lon": 103.7209232 }, "geometry": { "type": "Point", "coordinates": [ 103.7209232, 1.2619451 ] } },
{ "type": "Feature", "properties": { "Operator": "China Coal Shaanxi Yulin Energy and Chemical Co., Ltd.", "City": "Yulin", "Country": "China", "Region": "Asia", "city_lat": 22.654032, "city_lon": 110.18122, "lat": 22.654032, "lon": 110.18122 }, "geometry": { "type": "Point", "coordinates": [ 110.18122, 22.654032 ] } },
{ "type": "Feature", "properties": { "Operator": "China Resources Packaging Materials", "City": "Changzhou", "Country": "China", "Region": "Asia", "city_lat": 31.811226, "city_lon": 119.974061, "lat": 31.811226, "lon": 119.974061 }, "geometry": { "type": "Point", "coordinates": [ 119.974061, 31.811226 ] } },
{ "type": "Feature", "properties": { "Operator": "China Resources Packaging Materials", "City": "Zhuhai", "Country": "China", "Region": "Asia", "city_lat": 22.270978, "city_lon": 113.576677, "lat": 22.270978, "lon": 113.576677 }, "geometry": { "type": "Point", "coordinates": [ 113.576677, 22.270978 ] } },
{ "type": "Feature", "properties": { "Operator": "Chiripal Petrochem", "City": "Ahmedabad", "Country": "India", "Region": "Asia", "city_lat": 23.022505, "city_lon": 72.5713621, "lat": 23.0236749, "lon": 72.5306996 }, "geometry": { "type": "Point", "coordinates": [ 72.5306996, 23.0236749 ] } },
{ "type": "Feature", "properties": { "Operator": "Crystal Industries", "City": "Gabes", "Country": "Tunisia", "Region": "Africa", "city_lat": 33.888077, "city_lon": 10.0975221, "lat": 33.9210863, "lon": 10.0825553 }, "geometry": { "type": "Point", "coordinates": [ 10.0825553, 33.9210863 ] } },
{ "type": "Feature", "properties": { "Operator": "DAK Americas", "City": "Columbia,SC", "Country": "United States", "Region": "North America", "city_lat": 34.0007104, "city_lon": -81.0348144, "lat": 33.8662654, "lon": -81.0158755 }, "geometry": { "type": "Point", "coordinates": [ -81.0158755, 33.8662654 ] } },
{ "type": "Feature", "properties": { "Operator": "DAK Americas", "City": "Cooper River", "Country": "United States", "Region": "North America", "city_lat": 32.7785099, "city_lon": -79.903976, "lat": 33.0574847, "lon": -79.9421818 }, "geometry": { "type": "Point", "coordinates": [ -79.9421818, 33.0574847 ] } },
{ "type": "Feature", "properties": { "Operator": "DAK Americas", "City": "Fayetteville", "Country": "United States", "Region": "North America", "city_lat": 35.0526641, "city_lon": -78.8783585, "lat": 34.983494, "lon": -78.7906058 }, "geometry": { "type": "Point", "coordinates": [ -78.7906058, 34.983494 ] } },
{ "type": "Feature", "properties": { "Operator": "DAK Americas", "City": "Pearl River", "Country": "United States", "Region": "North America", "city_lat": 41.0589855, "city_lon": -74.0218063, "lat": 39.8511542, "lon": -75.5377686 }, "geometry": { "type": "Point", "coordinates": [ -75.5377686, 39.8511542 ] } },
{ "type": "Feature", "properties": { "Operator": "Daelim Industrial Co., Ltd", "City": "Yeosu", "Country": "South Korea", "Region": "Asia", "city_lat": 34.7603737, "city_lon": 127.6622221, "lat": 34.8175337, "lon": 127.6574383 }, "geometry": { "type": "Point", "coordinates": [ 127.6574383, 34.8175337 ] } },
{ "type": "Feature", "properties": { "Operator": "Dalian West Pacific Petrochemical (WEPEC)", "City": "Dalian", "Country": "China", "Region": "Asia", "city_lat": 38.914003, "city_lon": 121.614682, "lat": 38.989966, "lon": 121.85428 }, "geometry": { "type": "Point", "coordinates": [ 121.85428, 38.989966 ] } },
{ "type": "Feature", "properties": { "Operator": "Daqing Huake Co., Ltd.", "City": "Daqing", "Country": "China", "Region": "Asia", "city_lat": 46.589309, "city_lon": 125.103784, "lat": 46.5720432, "lon": 125.1545985 }, "geometry": { "type": "Point", "coordinates": [ 125.1545985, 46.5720432 ] } },
{ "type": "Feature", "properties": { "Operator": "Datang Inner Mongolia Duolun Coal Chemical Co. Ltd.", "City": "Duolun", "Country": "China", "Region": "Asia", "city_lat": 42.203591, "city_lon": 116.485555, "lat": 42.21049, "lon": 116.578597 }, "geometry": { "type": "Point", "coordinates": [ 116.578597, 42.21049 ] } },
{ "type": "Feature", "properties": { "Operator": "Dhunseri Petrochem & Tea", "City": "Haldia", "Country": "India", "Region": "Asia", "city_lat": 22.0627164, "city_lon": 88.0832934, "lat": 22.0819817, "lon": 88.1231783 }, "geometry": { "type": "Point", "coordinates": [ 88.1231783, 22.0819817 ] } },
{ "type": "Feature", "properties": { "Operator": "Dongguan Grand Resource Science & Technology Co. Ltd.", "City": "Dongguan", "Country": "China", "Region": "Asia", "city_lat": 23.020673, "city_lon": 113.751799, "lat": 22.5647148, "lon": 114.0989954 }, "geometry": { "type": "Point", "coordinates": [ 114.0989954, 22.5647148 ] } },
{ "type": "Feature", "properties": { "Operator": "Dow Benelux B.V.", "City": "Terneuzen", "Country": "Netherlands", "Region": "Europe", "city_lat": 51.3322854, "city_lon": 3.8324265, "lat": 51.3339118, "lon": 3.7894798 }, "geometry": { "type": "Point", "coordinates": [ 3.7894798, 51.3339118 ] } },
{ "type": "Feature", "properties": { "Operator": "Dow Chemical", "City": "Schkopau", "Country": "Germany", "Region": "Europe", "city_lat": 51.3900745, "city_lon": 11.9851505, "lat": 51.3941504, "lon": 11.9747026 }, "geometry": { "type": "Point", "coordinates": [ 11.9747026, 51.3941504 ] } },
{ "type": "Feature", "properties": { "Operator": "Dow Chemical Canada", "City": "Fort Saskatchewan", "Country": "Canada", "Region": "North America", "city_lat": 53.6963182, "city_lon": -113.2163764, "lat": 53.7335619, "lon": -113.1725508 }, "geometry": { "type": "Point", "coordinates": [ -113.1725508, 53.7335619 ] } },
{ "type": "Feature", "properties": { "Operator": "Dow Chemical Canada", "City": "Prentiss", "Country": "Canada", "Region": "North America", "city_lat": 52.374781, "city_lon": -113.620298, "lat": 52.3884952, "lon": -113.5999018 }, "geometry": { "type": "Point", "coordinates": [ -113.5999018, 52.388495199999987 ] } },
{ "type": "Feature", "properties": { "Operator": "Dow Chemical Company", "City": "Freeport", "Country": "United States", "Region": "North America", "city_lat": 43.8570065, "city_lon": -70.1031201, "lat": 43.1902706, "lon": -77.4981875 }, "geometry": { "type": "Point", "coordinates": [ -77.4981875, 43.1902706 ] } },
{ "type": "Feature", "properties": { "Operator": "Dow Chemical Company", "City": "Plaquemine", "Country": "United States", "Region": "North America", "city_lat": 30.2890833, "city_lon": -91.2342744, "lat": 30.3222203, "lon": -91.2523484 }, "geometry": { "type": "Point", "coordinates": [ -91.2523484, 30.3222203 ] } },
{ "type": "Feature", "properties": { "Operator": "Dow Chemical Company", "City": "Seadrift", "Country": "United States", "Region": "North America", "city_lat": 28.4152807, "city_lon": -96.7135933, "lat": 28.5071669, "lon": -96.7755277 }, "geometry": { "type": "Point", "coordinates": [ -96.775527700000012, 28.5071669 ] } },
{ "type": "Feature", "properties": { "Operator": "Dow Chemical Company", "City": "Taft", "Country": "United States", "Region": "North America", "city_lat": 35.1424671, "city_lon": -119.4565078, "lat": 34.095338, "lon": -117.559274 }, "geometry": { "type": "Point", "coordinates": [ -117.559274, 34.095338 ] } },
{ "type": "Feature", "properties": { "Operator": "Dow Chemical Iberica SA", "City": "Tarragona", "Country": "Spain", "Region": "Europe", "city_lat": 41.1188827, "city_lon": 1.2444909, "lat": 41.1018478, "lon": 1.1897446 }, "geometry": { "type": "Point", "coordinates": [ 1.1897446, 41.1018478 ] } },
{ "type": "Feature", "properties": { "Operator": "DuFor Resins BV", "City": "Emmen", "Country": "Netherlands", "Region": "Europe", "city_lat": 52.7132367, "city_lon": 6.9557766, "lat": 51.9290981, "lon": 6.1052067 }, "geometry": { "type": "Point", "coordinates": [ 6.1052067, 51.9290981 ] } },
{ "type": "Feature", "properties": { "Operator": "DuPont de Nemours & Company", "City": "Orange", "Country": "United States", "Region": "North America", "city_lat": 33.7879139, "city_lon": -117.8531007, "lat": 33.6735567, "lon": -117.8569599 }, "geometry": { "type": "Point", "coordinates": [ -117.8569599, 33.6735567 ] } },
{ "type": "Feature", "properties": { "Operator": "DuPont de Nemours & Company", "City": "Victoria", "Country": "United States", "Region": "North America", "city_lat": 28.8052674, "city_lon": -97.0035982, "lat": 29.7022925, "lon": -95.0602614 }, "geometry": { "type": "Point", "coordinates": [ -95.0602614, 29.7022925 ] } },
{ "type": "Feature", "properties": { "Operator": "DuPont-Mitsui Polychemicals Co. Ltd", "City": "Ichihara", "Country": "Japan", "Region": "Asia", "city_lat": 35.4978821, "city_lon": 140.1148672, "lat": 35.665401, "lon": 139.761062 }, "geometry": { "type": "Point", "coordinates": [ 139.761062, 35.665401 ] } },
{ "type": "Feature", "properties": { "Operator": "DuPont-Mitsui Polychemicals Co. Ltd", "City": "Otake", "Country": "Japan", "Region": "Asia", "city_lat": 34.2376953, "city_lon": 132.2221691, "lat": 35.665401, "lon": 139.761062 }, "geometry": { "type": "Point", "coordinates": [ 139.761062, 35.665401 ] } },
{ "type": "Feature", "properties": { "Operator": "Ducor Petrochemicals", "City": "Rozenburg", "Country": "Netherlands", "Region": "Europe", "city_lat": 51.904422, "city_lon": 4.2471328, "lat": 51.8926499, "lon": 4.243033 }, "geometry": { "type": "Point", "coordinates": [ 4.243033, 51.8926499 ] } },
{ "type": "Feature", "properties": { "Operator": "EIPET", "City": "Ain Sokhna", "Country": "Egypt", "Region": "Africa", "city_lat": 29.6724876, "city_lon": 32.3369649, "lat": 30.0973858, "lon": 31.31568 }, "geometry": { "type": "Point", "coordinates": [ 31.31568, 30.0973858 ] } },
{ "type": "Feature", "properties": { "Operator": "Eastern Petrochemical Company - (Sharq)", "City": "Al Jubail", "Country": "Saudi Arabia", "Region": "Middle East", "city_lat": 26.9597709, "city_lon": 49.5687416, "lat": 27.05456, "lon": 49.583315 }, "geometry": { "type": "Point", "coordinates": [ 49.583315, 27.05456 ] } },
{ "type": "Feature", "properties": { "Operator": "Ecopetrol S.A.", "City": "Barrancabermeja", "Country": "Colombia", "Region": "Latin America and the Caribbean", "city_lat": 7.0617085, "city_lon": -73.8519319, "lat": 7.0874207, "lon": -73.8758786 }, "geometry": { "type": "Point", "coordinates": [ -73.8758786, 7.0874207 ] } },
{ "type": "Feature", "properties": { "Operator": "Egyptian Ethylene and Derivatives Co. (Ethydco)", "City": "Alexandria", "Country": "Egypt", "Region": "Africa", "city_lat": 31.2000924, "city_lon": 29.9187387, "lat": 31.0017707, "lon": 29.8332862 }, "geometry": { "type": "Point", "coordinates": [ 29.8332862, 31.0017707 ] } },
{ "type": "Feature", "properties": { "Operator": "Egyptian Propylene and Polypropylene Company", "City": "Port Said City", "Country": "Egypt", "Region": "Africa", "city_lat": 31.2652893, "city_lon": 32.3018661, "lat": 31.3070916, "lon": 32.1639612 }, "geometry": { "type": "Point", "coordinates": [ 32.1639612, 31.3070916 ] } },
{ "type": "Feature", "properties": { "Operator": "Equate Petrochemical Company", "City": "Shuaiba City", "Country": "Kuwait", "Region": "Middle East", "city_lat": 29.0447222, "city_lon": 48.1591667, "lat": 29.0908536, "lon": 48.0872897 }, "geometry": { "type": "Point", "coordinates": [ 48.0872897, 29.0908536 ] } },
{ "type": "Feature", "properties": { "Operator": "Equipolymers", "City": "Schkopau", "Country": "Germany", "Region": "Europe", "city_lat": 51.3900745, "city_lon": 11.9851505, "lat": 51.3912098, "lon": 11.9268625 }, "geometry": { "type": "Point", "coordinates": [ 11.9268625, 51.3912098 ] } },
{ "type": "Feature", "properties": { "Operator": "Equistar Chemicals LP", "City": "Bayport", "Country": "United States", "Region": "North America", "city_lat": 40.7384317, "city_lon": -73.0506656, "lat": 40.491002, "lon": -74.3862318 }, "geometry": { "type": "Point", "coordinates": [ -74.3862318, 40.491002 ] } },
{ "type": "Feature", "properties": { "Operator": "Equistar Chemicals LP", "City": "Baytown", "Country": "United States", "Region": "North America", "city_lat": 29.7355047, "city_lon": -94.9774274, "lat": 29.8555836, "lon": -94.8955453 }, "geometry": { "type": "Point", "coordinates": [ -94.8955453, 29.8555836 ] } },
{ "type": "Feature", "properties": { "Operator": "Equistar Chemicals LP", "City": "Chocolate Bayou", "Country": "United States", "Region": "North America", "city_lat": 29.3132939, "city_lon": -95.2521556, "lat": 29.8555836, "lon": -94.8955453 }, "geometry": { "type": "Point", "coordinates": [ -94.8955453, 29.8555836 ] } },
{ "type": "Feature", "properties": { "Operator": "Equistar Chemicals LP", "City": "Clinton", "Country": "United States", "Region": "North America", "city_lat": 34.9979453, "city_lon": -78.3233325, "lat": 40.491002, "lon": -74.3862318 }, "geometry": { "type": "Point", "coordinates": [ -74.3862318, 40.491002 ] } },
{ "type": "Feature", "properties": { "Operator": "Equistar Chemicals LP", "City": "La Porte", "Country": "United States", "Region": "North America", "city_lat": 29.6657838, "city_lon": -95.0193728, "lat": 29.8555836, "lon": -94.8955453 }, "geometry": { "type": "Point", "coordinates": [ -94.8955453, 29.8555836 ] } },
{ "type": "Feature", "properties": { "Operator": "Equistar Chemicals LP", "City": "Lake Charles", "Country": "United States", "Region": "North America", "city_lat": 30.2265949, "city_lon": -93.2173758, "lat": 30.1909997, "lon": -93.3249055 }, "geometry": { "type": "Point", "coordinates": [ -93.3249055, 30.1909997 ] } },
{ "type": "Feature", "properties": { "Operator": "Equistar Chemicals LP", "City": "Matagorda", "Country": "United States", "Region": "North America", "city_lat": 28.691133, "city_lon": -95.9682714, "lat": 28.7855746, "lon": -95.9432223 }, "geometry": { "type": "Point", "coordinates": [ -95.943222300000016, 28.7855746 ] } },
{ "type": "Feature", "properties": { "Operator": "Equistar Chemicals LP", "City": "Morris", "Country": "United States", "Region": "North America", "city_lat": 40.8336038, "city_lon": -74.5463282, "lat": 40.491002, "lon": -74.3862318 }, "geometry": { "type": "Point", "coordinates": [ -74.3862318, 40.491002 ] } },
{ "type": "Feature", "properties": { "Operator": "Equistar Chemicals LP", "City": "Victoria", "Country": "United States", "Region": "North America", "city_lat": 28.8052674, "city_lon": -97.0035982, "lat": 28.6872472, "lon": -96.9413795 }, "geometry": { "type": "Point", "coordinates": [ -96.9413795, 28.6872472 ] } },
{ "type": "Feature", "properties": { "Operator": "Esenttia", "City": "Cartagena", "Country": "Colombia", "Region": "Latin America and the Caribbean", "city_lat": 10.3932277, "city_lon": -75.4832311, "lat": 10.3253611, "lon": -75.5025332 }, "geometry": { "type": "Point", "coordinates": [ -75.5025332, 10.3253611 ] } },
{ "type": "Feature", "properties": { "Operator": "Evolue Japan Co. Ltd", "City": "Ichihara", "Country": "Japan", "Region": "Asia", "city_lat": 35.4978821, "city_lon": 140.1148672, "lat": 35.6279075, "lon": 139.7407262 }, "geometry": { "type": "Point", "coordinates": [ 139.740726200000012, 35.6279075 ] } },
{ "type": "Feature", "properties": { "Operator": "ExxonMobil Chemical", "City": "Baton Rouge", "Country": "United States", "Region": "North America", "city_lat": 30.4514677, "city_lon": -91.1871466, "lat": 30.4943928, "lon": -91.1699018 }, "geometry": { "type": "Point", "coordinates": [ -91.1699018, 30.4943928 ] } },
{ "type": "Feature", "properties": { "Operator": "ExxonMobil Chemical", "City": "Baytown", "Country": "United States", "Region": "North America", "city_lat": 29.7355047, "city_lon": -94.9774274, "lat": 29.8748691, "lon": -94.9160345 }, "geometry": { "type": "Point", "coordinates": [ -94.9160345, 29.8748691 ] } },
{ "type": "Feature", "properties": { "Operator": "ExxonMobil Chemical Company", "City": "Antwerp", "Country": "Belgium", "Region": "Europe", "city_lat": 51.2194475, "city_lon": 4.4024643, "lat": 51.2366283, "lon": 4.3298371 }, "geometry": { "type": "Point", "coordinates": [ 4.3298371, 51.2366283 ] } },
{ "type": "Feature", "properties": { "Operator": "ExxonMobil Chemical Company", "City": "Baton Rouge", "Country": "United States", "Region": "North America", "city_lat": 30.4514677, "city_lon": -91.1871466, "lat": 30.4943928, "lon": -91.1699018 }, "geometry": { "type": "Point", "coordinates": [ -91.1699018, 30.4943928 ] } },
{ "type": "Feature", "properties": { "Operator": "ExxonMobil Chemical Company", "City": "Beaumont", "Country": "United States", "Region": "North America", "city_lat": 30.080174, "city_lon": -94.1265562, "lat": 30.066354, "lon": -94.0618448 }, "geometry": { "type": "Point", "coordinates": [ -94.061844799999989, 30.066354 ] } },
{ "type": "Feature", "properties": { "Operator": "ExxonMobil Chemical Company", "City": "Jurong Island", "Country": "Singapore", "Region": "Asia", "city_lat": 1.2759631, "city_lon": 103.6767958, "lat": 1.2680014, "lon": 103.6933575 }, "geometry": { "type": "Point", "coordinates": [ 103.6933575, 1.2680014 ] } },
{ "type": "Feature", "properties": { "Operator": "ExxonMobil Chemical Company", "City": "Lillebonne", "Country": "France", "Region": "Europe", "city_lat": 49.5188773, "city_lon": 0.5344584, "lat": 49.4965535, "lon": 0.5258642 }, "geometry": { "type": "Point", "coordinates": [ 0.5258642, 49.4965535 ] } },
{ "type": "Feature", "properties": { "Operator": "ExxonMobil Chemical Company", "City": "Meerhout", "Country": "Belgium", "Region": "Europe", "city_lat": 51.13219, "city_lon": 5.07708, "lat": 51.1008016, "lon": 5.0552677 }, "geometry": { "type": "Point", "coordinates": [ 5.0552677, 51.1008016 ] } },
{ "type": "Feature", "properties": { "Operator": "ExxonMobil Chemical Company", "City": "Mont Belvieu", "Country": "United States", "Region": "North America", "city_lat": 29.8477222, "city_lon": -94.890758, "lat": 29.8748691, "lon": -94.9160345 }, "geometry": { "type": "Point", "coordinates": [ -94.9160345, 29.8748691 ] } },
{ "type": "Feature", "properties": { "Operator": "ExxonMobil Chemical Company", "City": "Notre Dame de Gravenchon", "Country": "France", "Region": "Europe", "city_lat": 49.489108, "city_lon": 0.567624, "lat": 49.4965535, "lon": 0.5258642 }, "geometry": { "type": "Point", "coordinates": [ 0.5258642, 49.4965535 ] } },
{ "type": "Feature", "properties": { "Operator": "Far Eastern New Century", "City": "Apple Grove", "Country": "United States", "Region": "North America", "city_lat": 38.6650835, "city_lon": -82.1690337, "lat": 24.9133333, "lon": 121.0454075 }, "geometry": { "type": "Point", "coordinates": [ 121.0454075, 24.9133333 ] } },
{ "type": "Feature", "properties": { "Operator": "Far Eastern New Century", "City": "Ho Chi Minh City", "Country": "Vietnam", "Region": "Asia", "city_lat": 10.8230989, "city_lon": 106.6296638, "lat": 11.476899, "lon": 106.8817485 }, "geometry": { "type": "Point", "coordinates": [ 106.8817485, 11.476899 ] } },
{ "type": "Feature", "properties": { "Operator": "Far Eastern New Century", "City": "Hsinchu", "Country": "Taiwan", "Region": "Asia", "city_lat": 24.8138287, "city_lon": 120.9674798, "lat": 24.9133333, "lon": 121.0454075 }, "geometry": { "type": "Point", "coordinates": [ 121.0454075, 24.9133333 ] } },
{ "type": "Feature", "properties": { "Operator": "Far Eastern New Century", "City": "Kuanyin", "Country": "Taiwan", "Region": "Asia", "city_lat": 25.0359365, "city_lon": 121.1137544, "lat": 24.9133333, "lon": 121.0454075 }, "geometry": { "type": "Point", "coordinates": [ 121.0454075, 24.9133333 ] } },
{ "type": "Feature", "properties": { "Operator": "Flint Hills Resources LLC", "City": "Longview", "Country": "United States", "Region": "North America", "city_lat": 32.5007037, "city_lon": -94.7404891, "lat": 32.4343702, "lon": -94.7117591 }, "geometry": { "type": "Point", "coordinates": [ -94.7117591, 32.4343702 ] } },
{ "type": "Feature", "properties": { "Operator": "Formosa Chemicals & Fibre Corporation (FCFC)", "City": "Mailiao", "Country": "Taiwan", "Region": "Asia", "city_lat": 23.7485306, "city_lon": 120.2562662, "lat": 23.8011887, "lon": 120.2130105 }, "geometry": { "type": "Point", "coordinates": [ 120.2130105, 23.8011887 ] } },
{ "type": "Feature", "properties": { "Operator": "Formosa Chemicals & Fibre Corporation (FCFC)", "City": "Nhon Trach", "Country": "Vietnam", "Region": "Asia", "city_lat": 10.6968843, "city_lon": 106.8907696, "lat": 10.7204499, "lon": 106.9320657 }, "geometry": { "type": "Point", "coordinates": [ 106.9320657, 10.7204499 ] } },
{ "type": "Feature", "properties": { "Operator": "Formosa Plastics", "City": "Lin Yuan", "Country": "Taiwan", "Region": "Asia", "city_lat": 22.4986756, "city_lon": 120.4011911, "lat": 22.507705, "lon": 120.412675 }, "geometry": { "type": "Point", "coordinates": [ 120.412675, 22.507705 ] } },
{ "type": "Feature", "properties": { "Operator": "Formosa Plastics", "City": "Mailiao", "Country": "Taiwan", "Region": "Asia", "city_lat": 23.7485306, "city_lon": 120.2562662, "lat": 23.8011887, "lon": 120.2130105 }, "geometry": { "type": "Point", "coordinates": [ 120.2130105, 23.8011887 ] } },
{ "type": "Feature", "properties": { "Operator": "Formosa Plastics", "City": "Ningbo", "Country": "China", "Region": "Asia", "city_lat": 29.868336, "city_lon": 121.54399, "lat": 29.903605, "lon": 121.907989 }, "geometry": { "type": "Point", "coordinates": [ 121.907989, 29.903605 ] } },
{ "type": "Feature", "properties": { "Operator": "Formosa Plastics Corporation USA", "City": "Point Comfort", "Country": "United States", "Region": "North America", "city_lat": 28.6797169, "city_lon": -96.5602537, "lat": 28.6975144, "lon": -96.5449333 }, "geometry": { "type": "Point", "coordinates": [ -96.5449333, 28.6975144 ] } },
{ "type": "Feature", "properties": { "Operator": "Fujian Baihong (Billion)", "City": "Ho Chi Minh City", "Country": "Vietnam", "Region": "Asia", "city_lat": 10.8230989, "city_lon": 106.6296638, "lat": 24.656915, "lon": 118.625849 }, "geometry": { "type": "Point", "coordinates": [ 118.625849, 24.656915 ] } },
{ "type": "Feature", "properties": { "Operator": "Fujian Petrochemical Company Ltd", "City": "Quanzhou", "Country": "China", "Region": "Asia", "city_lat": 24.874132, "city_lon": 118.675675, "lat": 25.176158, "lon": 118.946815 }, "geometry": { "type": "Point", "coordinates": [ 118.946815, 25.176158 ] } },
{ "type": "Feature", "properties": { "Operator": "Fujian Refining & Petrochemical Company Limited", "City": "Quanzhou", "Country": "China", "Region": "Asia", "city_lat": 24.874132, "city_lon": 118.675675, "lat": 25.176158, "lon": 118.946815 }, "geometry": { "type": "Point", "coordinates": [ 118.946815, 25.176158 ] } },
{ "type": "Feature", "properties": { "Operator": "Fujian Zhongjiang Petrochemical Co., Ltd.", "City": "Fuzhou", "Country": "China", "Region": "Asia", "city_lat": 26.074478, "city_lon": 119.296482, "lat": 25.176158, "lon": 118.946815 }, "geometry": { "type": "Point", "coordinates": [ 118.946815, 25.176158 ] } },
{ "type": "Feature", "properties": { "Operator": "Fujian Zhongjing Petrochemical Co., Ltd.", "City": "Fuzhou", "Country": "China", "Region": "Asia", "city_lat": 26.074478, "city_lon": 119.296482, "lat": 26.074478, "lon": 119.296482 }, "geometry": { "type": "Point", "coordinates": [ 119.296482, 26.074478 ] } },
{ "type": "Feature", "properties": { "Operator": "Fund Energy Changzhou Chemical Development Co., Ltd", "City": "Changzhou", "Country": "China", "Region": "Asia", "city_lat": 31.811226, "city_lon": 119.974061, "lat": 31.811226, "lon": 119.974061 }, "geometry": { "type": "Point", "coordinates": [ 119.974061, 31.811226 ] } },
{ "type": "Feature", "properties": { "Operator": "GS Caltex Corporation", "City": "Yeosu", "Country": "South Korea", "Region": "Asia", "city_lat": 34.7603737, "city_lon": 127.6622221, "lat": 34.7498161, "lon": 127.6649348 }, "geometry": { "type": "Point", "coordinates": [ 127.6649348, 34.7498161 ] } },
{ "type": "Feature", "properties": { "Operator": "Gail (India) Ltd", "City": "Pata", "Country": "India", "Region": "Asia", "city_lat": 26.6564041, "city_lon": 79.4900738, "lat": 26.643854, "lon": 79.4893714 }, "geometry": { "type": "Point", "coordinates": [ 79.4893714, 26.643854 ] } },
{ "type": "Feature", "properties": { "Operator": "Gansu Langang Petrochemical Co. Ltd.", "City": "Lanzhou", "Country": "China", "Region": "Asia", "city_lat": 36.061089, "city_lon": 103.834303, "lat": 36.1125575, "lon": 103.6898552 }, "geometry": { "type": "Point", "coordinates": [ 103.6898552, 36.1125575 ] } },
{ "type": "Feature", "properties": { "Operator": "Gazprom Neftekhim Salavat", "City": "Salavat", "Country": "Russian Federation", "Region": "Russia and the Caspian", "city_lat": 53.3860437, "city_lon": 55.9259472, "lat": 53.4002794, "lon": 55.9048009 }, "geometry": { "type": "Point", "coordinates": [ 55.9048009, 53.4002794 ] } },
{ "type": "Feature", "properties": { "Operator": "Golriz Polymer", "City": "Qom", "Country": "Iran", "Region": "Middle East", "city_lat": 34.6415764, "city_lon": 50.8746035, "lat": 34.7913141, "lon": 50.8307612 }, "geometry": { "type": "Point", "coordinates": [ 50.8307612, 34.7913141 ] } },
{ "type": "Feature", "properties": { "Operator": "Guangxi East Oil Asphalt Co., Ltd.", "City": "Qinzhou", "Country": "China", "Region": "Asia", "city_lat": 21.979933, "city_lon": 108.654146, "lat": 21.979933, "lon": 108.654146 }, "geometry": { "type": "Point", "coordinates": [ 108.654146, 21.979933 ] } },
{ "type": "Feature", "properties": { "Operator": "HIP-Petrohemija", "City": "Pancevo", "Country": "Serbia", "Region": "Europe", "city_lat": 44.874, "city_lon": 20.6475673, "lat": 44.8363334, "lon": 20.6728298 }, "geometry": { "type": "Point", "coordinates": [ 20.6728298, 44.8363334 ] } },
{ "type": "Feature", "properties": { "Operator": "HMC Polymers Co. Ltd", "City": "Map Ta Phut", "Country": "Thailand", "Region": "Asia", "city_lat": 12.713219, "city_lon": 101.1685888, "lat": 12.6988228, "lon": 101.1346687 }, "geometry": { "type": "Point", "coordinates": [ 101.1346687, 12.6988228 ] } },
{ "type": "Feature", "properties": { "Operator": "HPCL-Mittal Energy Ltd", "City": "Bathinda", "Country": "India", "Region": "Asia", "city_lat": 30.210994, "city_lon": 74.9454745, "lat": 29.9308927, "lon": 74.9459314 }, "geometry": { "type": "Point", "coordinates": [ 74.9459314, 29.9308927 ] } },
{ "type": "Feature", "properties": { "Operator": "Haldia Petrochemicals Ltd", "City": "Haldia", "Country": "India", "Region": "Asia", "city_lat": 22.0627164, "city_lon": 88.0832934, "lat": 22.0666394, "lon": 88.1144943 }, "geometry": { "type": "Point", "coordinates": [ 88.1144943, 22.0666394 ] } },
{ "type": "Feature", "properties": { "Operator": "Hanwha Chemical", "City": "Ulsan", "Country": "South Korea", "Region": "Asia", "city_lat": 35.5383773, "city_lon": 129.3113596, "lat": 35.5450149, "lon": 129.2655303 }, "geometry": { "type": "Point", "coordinates": [ 129.2655303, 35.5450149 ] } },
{ "type": "Feature", "properties": { "Operator": "Hanwha Chemical", "City": "Yeosu", "Country": "South Korea", "Region": "Asia", "city_lat": 34.7603737, "city_lon": 127.6622221, "lat": 34.8239772, "lon": 127.6652492 }, "geometry": { "type": "Point", "coordinates": [ 127.6652492, 34.8239772 ] } },
{ "type": "Feature", "properties": { "Operator": "Hanwha Total Petrochemicals Co.", "City": "Daesan", "Country": "South Korea", "Region": "Asia", "city_lat": 36.9395813, "city_lon": 126.4343234, "lat": 36.9990654, "lon": 126.354157 }, "geometry": { "type": "Point", "coordinates": [ 126.354157, 36.9990654 ] } },
{ "type": "Feature", "properties": { "Operator": "Hebei Haiwei Petrochemical", "City": "Hengshui", "Country": "China", "Region": "Asia", "city_lat": 37.73892, "city_lon": 115.670177, "lat": 37.50106, "lon": 116.261441 }, "geometry": { "type": "Point", "coordinates": [ 116.261441, 37.50106 ] } },
{ "type": "Feature", "properties": { "Operator": "Hebei Jihexin Plastics Co., Ltd.", "City": "Shijiazhuang", "Country": "China", "Region": "Asia", "city_lat": 38.042805, "city_lon": 114.514893, "lat": 37.670001, "lon": 114.448364 }, "geometry": { "type": "Point", "coordinates": [ 114.448364, 37.670001 ] } },
{ "type": "Feature", "properties": { "Operator": "Hebei Zhongjie Petrochemical Group", "City": "Cangzhou", "Country": "China", "Region": "Asia", "city_lat": 38.304477, "city_lon": 116.838834, "lat": 38.304477, "lon": 116.838834 }, "geometry": { "type": "Point", "coordinates": [ 116.838834, 38.304477 ] } },
{ "type": "Feature", "properties": { "Operator": "Hellenic Petroleum", "City": "Thessaloniki", "Country": "Greece", "Region": "Europe", "city_lat": 40.6400629, "city_lon": 22.9444191, "lat": 40.6898292, "lon": 22.858794 }, "geometry": { "type": "Point", "coordinates": [ 22.858794, 40.6898292 ] } },
{ "type": "Feature", "properties": { "Operator": "Hipol a.d.", "City": "Odzaci", "Country": "Serbia", "Region": "Europe", "city_lat": 45.5146587, "city_lon": 19.2762516, "lat": 45.5296194, "lon": 19.2955563 }, "geometry": { "type": "Point", "coordinates": [ 19.2955563, 45.5296194 ] } },
{ "type": "Feature", "properties": { "Operator": "Horizon Chevron Phillips JV", "City": "Cedar Bayou", "Country": "United States", "Region": "North America", "city_lat": 29.7755031, "city_lon": -94.9421483, "lat": 29.8171288, "lon": -94.9342159 }, "geometry": { "type": "Point", "coordinates": [ -94.9342159, 29.8171288 ] } },
{ "type": "Feature", "properties": { "Operator": "Huabei Oilfield Jiujiu Co., Ltd.", "City": "Renqiu", "Country": "China", "Region": "Asia", "city_lat": 38.683591, "city_lon": 116.082917, "lat": 38.683591, "lon": 116.082917 }, "geometry": { "type": "Point", "coordinates": [ 116.082917, 38.683591 ] } },
{ "type": "Feature", "properties": { "Operator": "Hubei Jinao Chemical Co., Ltd.", "City": "Qianjiang", "Country": "China", "Region": "Asia", "city_lat": 30.402167, "city_lon": 112.899762, "lat": 30.457323, "lon": 112.886002 }, "geometry": { "type": "Point", "coordinates": [ 112.886002, 30.457323 ] } },
{ "type": "Feature", "properties": { "Operator": "Hunan Changsheng Petrochemical Co. Ltd", "City": "Yueyang", "Country": "China", "Region": "Asia", "city_lat": 29.356803, "city_lon": 113.12873, "lat": 29.5396442, "lon": 113.3580934 }, "geometry": { "type": "Point", "coordinates": [ 113.3580934, 29.5396442 ] } },
{ "type": "Feature", "properties": { "Operator": "Hyosung Corporation", "City": "Ulsan", "Country": "South Korea", "Region": "Asia", "city_lat": 35.5383773, "city_lon": 129.3113596, "lat": 35.5078544, "lon": 129.3592448 }, "geometry": { "type": "Point", "coordinates": [ 129.3592448, 35.5078544 ] } },
{ "type": "Feature", "properties": { "Operator": "INEOS Olefins & Polymers Europe", "City": "Bamble", "Country": "Norway", "Region": "Europe", "city_lat": 59.0030717, "city_lon": 9.5785258, "lat": 59.0908059, "lon": 9.5933209 }, "geometry": { "type": "Point", "coordinates": [ 9.5933209, 59.0908059 ] } },
{ "type": "Feature", "properties": { "Operator": "INEOS Olefins & Polymers Europe", "City": "Cologne", "Country": "Germany", "Region": "Europe", "city_lat": 50.937531, "city_lon": 6.9602786, "lat": 51.2323894, "lon": 4.3205134 }, "geometry": { "type": "Point", "coordinates": [ 4.3205134, 51.2323894 ] } },
{ "type": "Feature", "properties": { "Operator": "INEOS Olefins & Polymers Europe", "City": "Geel", "Country": "Belgium", "Region": "Europe", "city_lat": 51.16257, "city_lon": 4.99084, "lat": 51.1145456, "lon": 4.9951363 }, "geometry": { "type": "Point", "coordinates": [ 4.9951363, 51.1145456 ] } },
{ "type": "Feature", "properties": { "Operator": "INEOS Olefins & Polymers Europe", "City": "Grangemouth", "Country": "United Kingdom", "Region": "Europe", "city_lat": 56.0097152, "city_lon": -3.7227698, "lat": 51.4997442, "lon": -0.1620117 }, "geometry": { "type": "Point", "coordinates": [ -0.1620117, 51.499744199999988 ] } },
{ "type": "Feature", "properties": { "Operator": "INEOS Olefins & Polymers Europe", "City": "Lavera", "Country": "France", "Region": "Europe", "city_lat": 43.388073, "city_lon": 5.030569, "lat": 43.3841435, "lon": 5.0150838 }, "geometry": { "type": "Point", "coordinates": [ 5.0150838, 43.3841435 ] } },
{ "type": "Feature", "properties": { "Operator": "INEOS Olefins & Polymers Europe", "City": "Lillo", "Country": "Belgium", "Region": "Europe", "city_lat": 51.30436, "city_lon": 4.28026, "lat": 51.3249258, "lon": 4.2856278 }, "geometry": { "type": "Point", "coordinates": [ 4.2856278, 51.3249258 ] } },
{ "type": "Feature", "properties": { "Operator": "INEOS Olefins & Polymers Europe", "City": "Rosignano", "Country": "Italy", "Region": "Europe", "city_lat": 43.4066931, "city_lon": 10.4621366, "lat": 43.3815629, "lon": 10.4515272 }, "geometry": { "type": "Point", "coordinates": [ 10.4515272, 43.3815629 ] } },
{ "type": "Feature", "properties": { "Operator": "INEOS Olefins & Polymers Europe", "City": "Sarralbe", "Country": "France", "Region": "Europe", "city_lat": 48.999639, "city_lon": 7.029931, "lat": 49.0097747, "lon": 7.0294268 }, "geometry": { "type": "Point", "coordinates": [ 7.0294268, 49.0097747 ] } },
{ "type": "Feature", "properties": { "Operator": "IRPC Plc", "City": "Map Ta Phut", "Country": "Thailand", "Region": "Asia", "city_lat": 12.713219, "city_lon": 101.1685888, "lat": 12.658066, "lon": 101.300543 }, "geometry": { "type": "Point", "coordinates": [ 101.300543, 12.658066 ] } },
{ "type": "Feature", "properties": { "Operator": "Ibn Rushd", "City": "Yanbu", "Country": "Saudi Arabia", "Region": "Middle East", "city_lat": 24.0231757, "city_lon": 38.1899782, "lat": 23.9893761, "lon": 38.2453926 }, "geometry": { "type": "Point", "coordinates": [ 38.2453926, 23.9893761 ] } },
{ "type": "Feature", "properties": { "Operator": "Ibn Zahr Saudi-European Petrochemical Company", "City": "Al Jubail", "Country": "Saudi Arabia", "Region": "Middle East", "city_lat": 26.9597709, "city_lon": 49.5687416, "lat": 27.0687111, "lon": 49.570189 }, "geometry": { "type": "Point", "coordinates": [ 49.570189, 27.0687111 ] } },
{ "type": "Feature", "properties": { "Operator": "Ilam Petrochemical Company", "City": "Ilam", "Country": "Iran", "Region": "Middle East", "city_lat": 33.6349736, "city_lon": 46.415281, "lat": 33.7160999, "lon": 46.2931305 }, "geometry": { "type": "Point", "coordinates": [ 46.2931305, 33.7160999 ] } },
{ "type": "Feature", "properties": { "Operator": "Imperial Oil", "City": "Sarnia", "Country": "Canada", "Region": "North America", "city_lat": 42.974536, "city_lon": -82.4065901, "lat": 42.956123, "lon": -82.393972 }, "geometry": { "type": "Point", "coordinates": [ -82.393972, 42.956123 ] } },
{ "type": "Feature", "properties": { "Operator": "Indelpro SA de CV", "City": "Altamira", "Country": "Mexico", "Region": "North America", "city_lat": 22.4077462, "city_lon": -97.9211555, "lat": 22.3776509, "lon": -97.9013425 }, "geometry": { "type": "Point", "coordinates": [ -97.9013425, 22.3776509 ] } },
{ "type": "Feature", "properties": { "Operator": "Indian Oil Corporation Ltd", "City": "Panipat", "Country": "India", "Region": "Asia", "city_lat": 29.3909464, "city_lon": 76.9635023, "lat": 29.49902, "lon": 76.951678 }, "geometry": { "type": "Point", "coordinates": [ 76.951678, 29.49902 ] } },
{ "type": "Feature", "properties": { "Operator": "Indian Oil Corporation Ltd", "City": "Paradip", "Country": "India", "Region": "Asia", "city_lat": 20.3165523, "city_lon": 86.6113628, "lat": 20.2851525, "lon": 86.6270955 }, "geometry": { "type": "Point", "coordinates": [ 86.6270955, 20.2851525 ] } },
{ "type": "Feature", "properties": { "Operator": "Indorama", "City": "Ashboro", "Country": "United States", "Region": "North America", "city_lat": 35.7079146, "city_lon": -79.8136446, "lat": 35.182066, "lon": -80.922529 }, "geometry": { "type": "Point", "coordinates": [ -80.922529, 35.182066 ] } },
{ "type": "Feature", "properties": { "Operator": "Indorama", "City": "Corlu", "Country": "Turkey", "Region": "Europe", "city_lat": 41.155812, "city_lon": 27.8137319, "lat": 41.2759618, "lon": 27.816345 }, "geometry": { "type": "Point", "coordinates": [ 27.816345, 41.2759618 ] } },
{ "type": "Feature", "properties": { "Operator": "Indorama", "City": "Decatur,AL", "Country": "United States", "Region": "North America", "city_lat": 34.6059253, "city_lon": -86.9833417, "lat": 34.6429424, "lon": -87.0531673 }, "geometry": { "type": "Point", "coordinates": [ -87.0531673, 34.6429424 ] } },
{ "type": "Feature", "properties": { "Operator": "Indorama", "City": "Ipojuca", "Country": "Brazil", "Region": "Latin America and the Caribbean", "city_lat": -8.4627496, "city_lon": -35.0828588, "lat": -8.3763465, "lon": -35.0057449 }, "geometry": { "type": "Point", "coordinates": [ -35.0057449, -8.3763465 ] } },
{ "type": "Feature", "properties": { "Operator": "Indorama", "City": "Kaiping", "Country": "China", "Region": "Asia", "city_lat": 22.376395, "city_lon": 112.698545, "lat": 30.9962914, "lon": 76.7731582 }, "geometry": { "type": "Point", "coordinates": [ 76.7731582, 30.9962914 ] } },
{ "type": "Feature", "properties": { "Operator": "Indorama", "City": "Klaipeda", "Country": "Lithuania", "Region": "Europe", "city_lat": 55.7032948, "city_lon": 21.1442795, "lat": 55.6899699, "lon": 21.2089515 }, "geometry": { "type": "Point", "coordinates": [ 21.2089515, 55.689969899999987 ] } },
{ "type": "Feature", "properties": { "Operator": "Indorama", "City": "Loqburi", "Country": "Thailand", "Region": "Asia", "city_lat": 14.7995081, "city_lon": 100.6533706, "lat": 14.9197469, "lon": 100.4733789 }, "geometry": { "type": "Point", "coordinates": [ 100.4733789, 14.9197469 ] } },
{ "type": "Feature", "properties": { "Operator": "Indorama", "City": "Port Harcourt", "Country": "Nigeria", "Region": "Africa", "city_lat": 4.815554, "city_lon": 7.0498442, "lat": 4.8271251, "lon": 7.1062137 }, "geometry": { "type": "Point", "coordinates": [ 7.1062137, 4.8271251 ] } },
{ "type": "Feature", "properties": { "Operator": "Indorama", "City": "Purwakarta", "Country": "Indonesia", "Region": "Asia", "city_lat": -6.5406665, "city_lon": 107.4462717, "lat": -6.5531083, "lon": 107.4101544 }, "geometry": { "type": "Point", "coordinates": [ 107.4101544, -6.5531083 ] } },
{ "type": "Feature", "properties": { "Operator": "Indorama", "City": "Rayong", "Country": "Thailand", "Region": "Asia", "city_lat": 12.6813957, "city_lon": 101.2816261, "lat": 12.6894597, "lon": 101.1516307 }, "geometry": { "type": "Point", "coordinates": [ 101.1516307, 12.6894597 ] } },
{ "type": "Feature", "properties": { "Operator": "Indorama", "City": "Rotterdam", "Country": "Netherlands", "Region": "Europe", "city_lat": 51.9244201, "city_lon": 4.4777326, "lat": 51.9206941, "lon": 4.4810506 }, "geometry": { "type": "Point", "coordinates": [ 4.4810506, 51.920694100000013 ] } },
{ "type": "Feature", "properties": { "Operator": "Indorama", "City": "Santiago de Queretaro", "Country": "Mexico", "Region": "North America", "city_lat": 20.5887932, "city_lon": -100.3898881, "lat": 20.6334525, "lon": -100.4402344 }, "geometry": { "type": "Point", "coordinates": [ -100.4402344, 20.6334525 ] } },
{ "type": "Feature", "properties": { "Operator": "Indorama", "City": "Spartanburg", "Country": "United States", "Region": "North America", "city_lat": 34.9495672, "city_lon": -81.9320482, "lat": 35.033722, "lon": -81.8605161 }, "geometry": { "type": "Point", "coordinates": [ -81.8605161, 35.033722 ] } },
{ "type": "Feature", "properties": { "Operator": "Indorama", "City": "Tangerang", "Country": "Indonesia", "Region": "Asia", "city_lat": -6.1701796, "city_lon": 106.6403236, "lat": -6.2337113, "lon": 106.8319529 }, "geometry": { "type": "Point", "coordinates": [ 106.8319529, -6.2337113 ] } },
{ "type": "Feature", "properties": { "Operator": "Indorama", "City": "Wloclawek", "Country": "Poland", "Region": "Europe", "city_lat": 52.6483303, "city_lon": 19.0677357, "lat": 52.7123602, "lon": 18.9640673 }, "geometry": { "type": "Point", "coordinates": [ 18.9640673, 52.7123602 ] } },
{ "type": "Feature", "properties": { "Operator": "Indorama Eleme Petrochemicals Co. Ltd", "City": "Eleme", "Country": "Nigeria", "Region": "Africa", "city_lat": 4.7938534, "city_lon": 7.1574784, "lat": 4.827003, "lon": 7.090617 }, "geometry": { "type": "Point", "coordinates": [ 7.090617, 4.827003 ] } },
{ "type": "Feature", "properties": { "Operator": "Indorama Ventures Quimica", "City": "San Roque", "Country": "Spain", "Region": "Europe", "city_lat": 36.2104615, "city_lon": -5.3844317, "lat": 36.2017151, "lon": -5.4142446 }, "geometry": { "type": "Point", "coordinates": [ -5.4142446, 36.2017151 ] } },
{ "type": "Feature", "properties": { "Operator": "Ineos Olefins & Polymers USA", "City": "Carson", "Country": "United States", "Region": "North America", "city_lat": 33.8316745, "city_lon": -118.281693, "lat": 33.8240851, "lon": -118.2307929 }, "geometry": { "type": "Point", "coordinates": [ -118.2307929, 33.8240851 ] } },
{ "type": "Feature", "properties": { "Operator": "Ineos Olefins & Polymers USA", "City": "Chocolate Bayou", "Country": "United States", "Region": "North America", "city_lat": 29.3132939, "city_lon": -95.2521556, "lat": 29.3987764, "lon": -95.2638317 }, "geometry": { "type": "Point", "coordinates": [ -95.2638317, 29.3987764 ] } },
{ "type": "Feature", "properties": { "Operator": "Ineos Olefins & Polymers USA", "City": "La Porte", "Country": "United States", "Region": "North America", "city_lat": 29.6657838, "city_lon": -95.0193728, "lat": 29.5433171, "lon": -95.0639204 }, "geometry": { "type": "Point", "coordinates": [ -95.0639204, 29.5433171 ] } },
{ "type": "Feature", "properties": { "Operator": "Inner Mongolia China Coal Mengda New Energy & Chemical Company Limited", "City": "Ordos", "Country": "China", "Region": "Asia", "city_lat": 39.608266, "city_lon": 109.781327, "lat": 42.21049, "lon": 116.578597 }, "geometry": { "type": "Point", "coordinates": [ 116.578597, 42.21049 ] } },
{ "type": "Feature", "properties": { "Operator": "Invista", "City": "Gersthofen", "Country": "Germany", "Region": "Europe", "city_lat": 48.4242503, "city_lon": 10.876347, "lat": 48.44544, "lon": 10.88151 }, "geometry": { "type": "Point", "coordinates": [ 10.88151, 48.44544 ] } },
{ "type": "Feature", "properties": { "Operator": "JBF Industries Ltd", "City": "Geel", "Country": "Belgium", "Region": "Europe", "city_lat": 51.16257, "city_lon": 4.99084, "lat": 26.2243363, "lon": 50.6694978 }, "geometry": { "type": "Point", "coordinates": [ 50.669497799999988, 26.2243363 ] } },
{ "type": "Feature", "properties": { "Operator": "JBF Industries Ltd", "City": "Ras al Khaimah", "Country": "United Arab Emirates", "Region": "Middle East", "city_lat": 25.6741343, "city_lon": 55.9804173, "lat": 26.2243363, "lon": 50.6694978 }, "geometry": { "type": "Point", "coordinates": [ 50.669497799999988, 26.2243363 ] } },
{ "type": "Feature", "properties": { "Operator": "JBF Industries Ltd", "City": "Silvassa", "Country": "India", "Region": "Asia", "city_lat": 20.2753406, "city_lon": 73.0072986, "lat": 20.2766082, "lon": 73.0350208 }, "geometry": { "type": "Point", "coordinates": [ 73.0350208, 20.2766082 ] } },
{ "type": "Feature", "properties": { "Operator": "JG Summit Petrochemical Corporation", "City": "Batangas City", "Country": "Philippines", "Region": "Asia", "city_lat": 13.7564651, "city_lon": 121.0583076, "lat": 13.676387, "lon": 121.055201 }, "geometry": { "type": "Point", "coordinates": [ 121.055201, 13.676387 ] } },
{ "type": "Feature", "properties": { "Operator": "Jam Petrochemical Company", "City": "Pars Special Economic Energy Zone", "Country": "Iran", "Region": "Middle East", "city_lat": 27.5139054, "city_lon": 52.5758902, "lat": 27.5479007, "lon": 52.5527175 }, "geometry": { "type": "Point", "coordinates": [ 52.5527175, 27.5479007 ] } },
{ "type": "Feature", "properties": { "Operator": "Japan Polyethylene Corp.", "City": "Kashima", "Country": "Japan", "Region": "Asia", "city_lat": 35.9656835, "city_lon": 140.6447937, "lat": 35.6845001, "lon": 139.7612211 }, "geometry": { "type": "Point", "coordinates": [ 139.7612211, 35.6845001 ] } },
{ "type": "Feature", "properties": { "Operator": "Japan Polyethylene Corp.", "City": "Kawasaki", "Country": "Japan", "Region": "Asia", "city_lat": 35.5308325, "city_lon": 139.7029125, "lat": 35.6845001, "lon": 139.7612211 }, "geometry": { "type": "Point", "coordinates": [ 139.7612211, 35.6845001 ] } },
{ "type": "Feature", "properties": { "Operator": "Japan Polyethylene Corp.", "City": "Mizushima", "Country": "Japan", "Region": "Asia", "city_lat": 36.637423, "city_lon": 136.9056142, "lat": 35.6845001, "lon": 139.7612211 }, "geometry": { "type": "Point", "coordinates": [ 139.7612211, 35.6845001 ] } },
{ "type": "Feature", "properties": { "Operator": "Japan Polyethylene Corp.", "City": "Oita", "Country": "Japan", "Region": "Asia", "city_lat": 33.2396084, "city_lon": 131.6095148, "lat": 33.5922558, "lon": 130.4231981 }, "geometry": { "type": "Point", "coordinates": [ 130.4231981, 33.5922558 ] } },
{ "type": "Feature", "properties": { "Operator": "Japan Polypropylene Corp.", "City": "Ichihara", "Country": "Japan", "Region": "Asia", "city_lat": 35.4978821, "city_lon": 140.1148672, "lat": 35.6225984, "lon": 139.7488374 }, "geometry": { "type": "Point", "coordinates": [ 139.748837400000014, 35.6225984 ] } },
{ "type": "Feature", "properties": { "Operator": "Japan Polypropylene Corp.", "City": "Kashima", "Country": "Japan", "Region": "Asia", "city_lat": 35.9656835, "city_lon": 140.6447937, "lat": 35.9065617, "lon": 140.6964182 }, "geometry": { "type": "Point", "coordinates": [ 140.696418200000011, 35.9065617 ] } },
{ "type": "Feature", "properties": { "Operator": "Japan Polypropylene Corp.", "City": "Mizushima", "Country": "Japan", "Region": "Asia", "city_lat": 36.637423, "city_lon": 136.9056142, "lat": 35.6225984, "lon": 139.7488374 }, "geometry": { "type": "Point", "coordinates": [ 139.748837400000014, 35.6225984 ] } },
{ "type": "Feature", "properties": { "Operator": "Japan Polypropylene Corp.", "City": "Yokkaichi", "Country": "Japan", "Region": "Asia", "city_lat": 34.9651064, "city_lon": 136.6244121, "lat": 34.9767235, "lon": 136.6574879 }, "geometry": { "type": "Point", "coordinates": [ 136.6574879, 34.9767235 ] } },
{ "type": "Feature", "properties": { "Operator": "Jiangsu Baosheng New Technology", "City": "Yangzhou", "Country": "China", "Region": "Asia", "city_lat": 32.394209, "city_lon": 119.412939, "lat": 32.394209, "lon": 119.412939 }, "geometry": { "type": "Point", "coordinates": [ 119.412939, 32.394209 ] } },
{ "type": "Feature", "properties": { "Operator": "Jiangsu GPRO Group Co., Ltd.", "City": "Nanjing", "Country": "China", "Region": "Asia", "city_lat": 32.060255, "city_lon": 118.796877, "lat": 32.071205, "lon": 118.774234 }, "geometry": { "type": "Point", "coordinates": [ 118.774234, 32.071205 ] } },
{ "type": "Feature", "properties": { "Operator": "Jiangsu Huaneng Chemical Co., Ltd.", "City": "Taizhou", "Country": "China", "Region": "Asia", "city_lat": 28.65638, "city_lon": 121.42076, "lat": 32.7456997, "lon": 119.4474622 }, "geometry": { "type": "Point", "coordinates": [ 119.4474622, 32.7456997 ] } },
{ "type": "Feature", "properties": { "Operator": "Jiangsu Pengcheng Chemical Co., Ltd.", "City": "Lianyungang", "Country": "China", "Region": "Asia", "city_lat": 34.596653, "city_lon": 119.221611, "lat": 34.5842755, "lon": 119.1397947 }, "geometry": { "type": "Point", "coordinates": [ 119.1397947, 34.5842755 ] } },
{ "type": "Feature", "properties": { "Operator": "Jiangsu Sailboat Petrochemical Co., Ltd.", "City": "Lianyungang", "Country": "China", "Region": "Asia", "city_lat": 34.596653, "city_lon": 119.221611, "lat": 34.556625, "lon": 119.612051 }, "geometry": { "type": "Point", "coordinates": [ 119.612051, 34.556625 ] } },
{ "type": "Feature", "properties": { "Operator": "Jiangsu Sanfangxiang", "City": "Jiangyin", "Country": "China", "Region": "Asia", "city_lat": 31.920658, "city_lon": 120.284938, "lat": 31.799361, "lon": 120.540987 }, "geometry": { "type": "Point", "coordinates": [ 120.540987, 31.799361 ] } },
{ "type": "Feature", "properties": { "Operator": "Jiangsu Tongli Chemical Co., Ltd.", "City": "Xuzhou", "Country": "China", "Region": "Asia", "city_lat": 34.205768, "city_lon": 117.284124, "lat": 33.8148673, "lon": 119.1957353 }, "geometry": { "type": "Point", "coordinates": [ 119.1957353, 33.8148673 ] } },
{ "type": "Feature", "properties": { "Operator": "Jiangsu Xusheng Petrochemical Co., Ltd.", "City": "Yangzhou", "Country": "China", "Region": "Asia", "city_lat": 32.394209, "city_lon": 119.412939, "lat": 32.26035, "lon": 119.13833 }, "geometry": { "type": "Point", "coordinates": [ 119.13833, 32.26035 ] } },
{ "type": "Feature", "properties": { "Operator": "Jiangyin Chengxing (Chengold)", "City": "Jiangyin", "Country": "China", "Region": "Asia", "city_lat": 31.920658, "city_lon": 120.284938, "lat": 31.920658, "lon": 120.284938 }, "geometry": { "type": "Point", "coordinates": [ 120.284938, 31.920658 ] } },
{ "type": "Feature", "properties": { "Operator": "Jiutai Energy (Zhungeer) Co, Ltd.", "City": "Ordos", "Country": "China", "Region": "Asia", "city_lat": 39.608266, "city_lon": 109.781327, "lat": 39.608266, "lon": 109.781327 }, "geometry": { "type": "Point", "coordinates": [ 109.781327, 39.608266 ] } },
{ "type": "Feature", "properties": { "Operator": "Jubail Petrochemical Company - (Kemya)", "City": "Al Jubail", "Country": "Saudi Arabia", "Region": "Middle East", "city_lat": 26.9597709, "city_lon": 49.5687416, "lat": 27.0286797, "lon": 49.5905298 }, "geometry": { "type": "Point", "coordinates": [ 49.5905298, 27.0286797 ] } },
{ "type": "Feature", "properties": { "Operator": "Karpatneftekhim", "City": "Kalush", "Country": "Ukraine", "Region": "Europe", "city_lat": 49.0414259, "city_lon": 24.3950384, "lat": 49.0830862, "lon": 24.3127548 }, "geometry": { "type": "Point", "coordinates": [ 24.3127548, 49.0830862 ] } },
{ "type": "Feature", "properties": { "Operator": "Kazanorgsintez JSC", "City": "Kazan", "Country": "Russian Federation", "Region": "Russia and the Caspian", "city_lat": 55.7878944, "city_lon": 49.1233294, "lat": 55.8252035, "lon": 49.0879733 }, "geometry": { "type": "Point", "coordinates": [ 49.087973299999987, 55.8252035 ] } },
{ "type": "Feature", "properties": { "Operator": "Keiyo Polyethylene Co. Ltd", "City": "Ichihara", "Country": "Japan", "Region": "Asia", "city_lat": 35.4978821, "city_lon": 140.1148672, "lat": 35.4978821, "lon": 140.1148672 }, "geometry": { "type": "Point", "coordinates": [ 140.1148672, 35.4978821 ] } },
{ "type": "Feature", "properties": { "Operator": "Kermanshan Polymer Company", "City": "Harsin", "Country": "Iran", "Region": "Middle East", "city_lat": 34.2719149, "city_lon": 47.6046183, "lat": 34.3399765, "lon": 47.2817344 }, "geometry": { "type": "Point", "coordinates": [ 47.2817344, 34.3399765 ] } },
{ "type": "Feature", "properties": { "Operator": "Khartoum Petrochemical Company", "City": "Khartoum", "Country": "Sudan", "Region": "Africa", "city_lat": 15.5006544, "city_lon": 32.5598994, "lat": 16.1288047, "lon": 32.6811368 }, "geometry": { "type": "Point", "coordinates": [ 32.6811368, 16.1288047 ] } },
{ "type": "Feature", "properties": { "Operator": "Koksan PET Packaging ", "City": "Gaziantep", "Country": "Turkey", "Region": "Europe", "city_lat": 37.065953, "city_lon": 37.37811, "lat": 37.1654292, "lon": 37.3946661 }, "geometry": { "type": "Point", "coordinates": [ 37.394666099999988, 37.1654292 ] } },
{ "type": "Feature", "properties": { "Operator": "Kordestan Petrochemical Company", "City": "Kordestan", "Country": "Iran", "Region": "Middle East", "city_lat": 35.9553579, "city_lon": 47.1362125, "lat": 35.2229106, "lon": 47.0282142 }, "geometry": { "type": "Point", "coordinates": [ 47.0282142, 35.2229106 ] } },
{ "type": "Feature", "properties": { "Operator": "Korea Petrochemical Industries Co. Ltd. (KPIC)", "City": "Ulsan", "Country": "South Korea", "Region": "Asia", "city_lat": 35.5383773, "city_lon": 129.3113596, "lat": 35.5383773, "lon": 129.3113596 }, "geometry": { "type": "Point", "coordinates": [ 129.311359600000031, 35.5383773 ] } },
{ "type": "Feature", "properties": { "Operator": "LCY Chemical Corp.", "City": "Dashe District", "Country": "Taiwan", "Region": "Asia", "city_lat": 22.7377083, "city_lon": 120.3608455, "lat": 22.7274228, "lon": 120.3426441 }, "geometry": { "type": "Point", "coordinates": [ 120.3426441, 22.7274228 ] } },
{ "type": "Feature", "properties": { "Operator": "LG Chem", "City": "Daesan", "Country": "South Korea", "Region": "Asia", "city_lat": 36.9395813, "city_lon": 126.4343234, "lat": 36.9395813, "lon": 126.4343234 }, "geometry": { "type": "Point", "coordinates": [ 126.4343234, 36.9395813 ] } },
{ "type": "Feature", "properties": { "Operator": "LG Chem", "City": "Yeosu", "Country": "South Korea", "Region": "Asia", "city_lat": 34.7603737, "city_lon": 127.6622221, "lat": 34.8027125, "lon": 127.6555344 }, "geometry": { "type": "Point", "coordinates": [ 127.6555344, 34.8027125 ] } },
{ "type": "Feature", "properties": { "Operator": "LUKOIL Neftokhim Burgas", "City": "Burgas", "Country": "Bulgaria", "Region": "Europe", "city_lat": 42.5047926, "city_lon": 27.4626361, "lat": 42.4979485, "lon": 27.4697243 }, "geometry": { "type": "Point", "coordinates": [ 27.4697243, 42.4979485 ] } },
{ "type": "Feature", "properties": { "Operator": "Laleh Petrochemical Company", "City": "Bandar Imam", "Country": "Iran", "Region": "Middle East", "city_lat": 30.4472068, "city_lon": 49.0716096, "lat": 30.4851514, "lon": 49.094765 }, "geometry": { "type": "Point", "coordinates": [ 49.094765, 30.4851514 ] } },
{ "type": "Feature", "properties": { "Operator": "Lea-Lea", "City": "Changhua", "Country": "Taiwan", "Region": "Asia", "city_lat": 24.0716583, "city_lon": 120.5624474, "lat": 23.8488011, "lon": 120.9311288 }, "geometry": { "type": "Point", "coordinates": [ 120.9311288, 23.8488011 ] } },
{ "type": "Feature", "properties": { "Operator": "Ledervin", "City": "Osasco", "Country": "Brazil", "Region": "Latin America and the Caribbean", "city_lat": -23.5372048, "city_lon": -46.7962319, "lat": -23.6009017, "lon": -47.0085413 }, "geometry": { "type": "Point", "coordinates": [ -47.0085413, -23.6009017 ] } },
{ "type": "Feature", "properties": { "Operator": "Linyi Wuhu Chemical Co., Ltd.", "City": "Linyi", "Country": "China", "Region": "Asia", "city_lat": 35.104673, "city_lon": 118.356414, "lat": 31.4266835, "lon": 118.3623325 }, "geometry": { "type": "Point", "coordinates": [ 118.3623325, 31.4266835 ] } },
{ "type": "Feature", "properties": { "Operator": "LinyiYishunChemical Co., Ltd.", "City": "Linyi", "Country": "China", "Region": "Asia", "city_lat": 35.104673, "city_lon": 118.356414, "lat": 35.0934493, "lon": 118.4215856 }, "geometry": { "type": "Point", "coordinates": [ 118.4215856, 35.0934493 ] } },
{ "type": "Feature", "properties": { "Operator": "Lorestan Petrochemical Company", "City": "Khoramabad", "Country": "Iran", "Region": "Middle East", "city_lat": 33.4646833, "city_lon": 48.3389644, "lat": 33.4844109, "lon": 48.2323525 }, "geometry": { "type": "Point", "coordinates": [ 48.2323525, 33.4844109 ] } },
{ "type": "Feature", "properties": { "Operator": "Lotte Chemical Corporation", "City": "Daesan", "Country": "South Korea", "Region": "Asia", "city_lat": 36.9395813, "city_lon": 126.4343234, "lat": 36.9955145, "lon": 126.3652003 }, "geometry": { "type": "Point", "coordinates": [ 126.3652003, 36.9955145 ] } },
{ "type": "Feature", "properties": { "Operator": "Lotte Chemical Corporation", "City": "Yeosu", "Country": "South Korea", "Region": "Asia", "city_lat": 34.7603737, "city_lon": 127.6622221, "lat": 34.8137711, "lon": 127.675346 }, "geometry": { "type": "Point", "coordinates": [ 127.675346, 34.8137711 ] } },
{ "type": "Feature", "properties": { "Operator": "Lotte Chemical Titan Holding Sdn Bhd", "City": "Pasir Gudang", "Country": "Malaysia", "Region": "Asia", "city_lat": 1.470288, "city_lon": 103.9029689, "lat": 1.4450689, "lon": 103.8943051 }, "geometry": { "type": "Point", "coordinates": [ 103.8943051, 1.4450689 ] } },
{ "type": "Feature", "properties": { "Operator": "Lotte Group", "City": "Ulsan", "Country": "South Korea", "Region": "Asia", "city_lat": 35.5383773, "city_lon": 129.3113596, "lat": 35.53868, "lon": 129.33814 }, "geometry": { "type": "Point", "coordinates": [ 129.33814, 35.53868 ] } },
{ "type": "Feature", "properties": { "Operator": "Lotte Group", "City": "Yeosu", "Country": "South Korea", "Region": "Asia", "city_lat": 34.7603737, "city_lon": 127.6622221, "lat": 50.0166951, "lon": 15.2172891 }, "geometry": { "type": "Point", "coordinates": [ 15.2172891, 50.0166951 ] } },
{ "type": "Feature", "properties": { "Operator": "LyondellBasell", "City": "Aubette", "Country": "France", "Region": "Europe", "city_lat": 48.5838448, "city_lon": 7.7460697, "lat": 50.0983345, "lon": 8.5380963 }, "geometry": { "type": "Point", "coordinates": [ 8.5380963, 50.0983345 ] } },
{ "type": "Feature", "properties": { "Operator": "LyondellBasell", "City": "Berre", "Country": "France", "Region": "Europe", "city_lat": 43.4757729, "city_lon": 5.167309, "lat": 43.5045803, "lon": 5.1841673 }, "geometry": { "type": "Point", "coordinates": [ 5.1841673, 43.5045803 ] } },
{ "type": "Feature", "properties": { "Operator": "LyondellBasell", "City": "Brindisi", "Country": "Italy", "Region": "Europe", "city_lat": 40.6327278, "city_lon": 17.9417616, "lat": 40.6374665, "lon": 17.9870492 }, "geometry": { "type": "Point", "coordinates": [ 17.9870492, 40.6374665 ] } },
{ "type": "Feature", "properties": { "Operator": "LyondellBasell", "City": "Carrington", "Country": "United Kingdom", "Region": "Europe", "city_lat": 53.4334046, "city_lon": -2.3851324, "lat": 53.4295293, "lon": -2.3838579 }, "geometry": { "type": "Point", "coordinates": [ -2.3838579, 53.4295293 ] } },
{ "type": "Feature", "properties": { "Operator": "LyondellBasell", "City": "Ferrara", "Country": "Italy", "Region": "Europe", "city_lat": 44.8381237, "city_lon": 11.619787, "lat": 44.8592796, "lon": 11.5946149 }, "geometry": { "type": "Point", "coordinates": [ 11.5946149, 44.8592796 ] } },
{ "type": "Feature", "properties": { "Operator": "LyondellBasell", "City": "Frankfurt", "Country": "Germany", "Region": "Europe", "city_lat": 50.1109221, "city_lon": 8.6821267, "lat": 50.0983345, "lon": 8.5380963 }, "geometry": { "type": "Point", "coordinates": [ 8.5380963, 50.0983345 ] } },
{ "type": "Feature", "properties": { "Operator": "LyondellBasell", "City": "Geelong", "Country": "Australia", "Region": "Oceania", "city_lat": -38.1499181, "city_lon": 144.3617186, "lat": -38.0765331, "lon": 144.3785409 }, "geometry": { "type": "Point", "coordinates": [ 144.3785409, -38.0765331 ] } },
{ "type": "Feature", "properties": { "Operator": "LyondellBasell", "City": "Knapsack", "Country": "Germany", "Region": "Europe", "city_lat": 50.8621159, "city_lon": 6.8437883, "lat": 50.8330548, "lon": 6.96696 }, "geometry": { "type": "Point", "coordinates": [ 6.96696, 50.8330548 ] } },
{ "type": "Feature", "properties": { "Operator": "LyondellBasell", "City": "Moerdijk", "Country": "Netherlands", "Region": "Europe", "city_lat": 51.6601559, "city_lon": 4.5130718, "lat": 51.6669578, "lon": 4.5752387 }, "geometry": { "type": "Point", "coordinates": [ 4.5752387, 51.6669578 ] } },
{ "type": "Feature", "properties": { "Operator": "LyondellBasell", "City": "Munchsmunster", "Country": "Germany", "Region": "Europe", "city_lat": 48.7651018, "city_lon": 11.6898582, "lat": 48.75529, "lon": 11.7045563 }, "geometry": { "type": "Point", "coordinates": [ 11.7045563, 48.75529 ] } },
{ "type": "Feature", "properties": { "Operator": "LyondellBasell", "City": "Tarragona", "Country": "Spain", "Region": "Europe", "city_lat": 41.1188827, "city_lon": 1.2444909, "lat": 41.1131535, "lon": 1.1627352 }, "geometry": { "type": "Point", "coordinates": [ 1.1627352, 41.1131535 ] } },
{ "type": "Feature", "properties": { "Operator": "LyondellBasell", "City": "Wesseling", "Country": "Germany", "Region": "Europe", "city_lat": 50.8255624, "city_lon": 6.9725385, "lat": 50.8330548, "lon": 6.96696 }, "geometry": { "type": "Point", "coordinates": [ 6.96696, 50.8330548 ] } },
{ "type": "Feature", "properties": { "Operator": "MOL Petrochemicals Co. Ltd.", "City": "Bratislava", "Country": "Slovakia", "Region": "Europe", "city_lat": 48.1485965, "city_lon": 17.1077478, "lat": 47.9184094, "lon": 21.0285982 }, "geometry": { "type": "Point", "coordinates": [ 21.0285982, 47.918409399999987 ] } },
{ "type": "Feature", "properties": { "Operator": "MOL Petrochemicals Co. Ltd.", "City": "Tiszaujvaros", "Country": "Hungary", "Region": "Europe", "city_lat": 47.9159846, "city_lon": 21.0427447, "lat": 47.9184094, "lon": 21.0285982 }, "geometry": { "type": "Point", "coordinates": [ 21.0285982, 47.918409399999987 ] } },
{ "type": "Feature", "properties": { "Operator": "MPI", "City": "Kuala Lumpur", "Country": "Malaysia", "Region": "Asia", "city_lat": 3.139003, "city_lon": 101.686855, "lat": 3.155157, "lon": 101.6993128 }, "geometry": { "type": "Point", "coordinates": [ 101.6993128, 3.155157 ] } },
{ "type": "Feature", "properties": { "Operator": "Mahabad Petrochemical Company", "City": "Mahabad", "Country": "Iran", "Region": "Middle East", "city_lat": 36.7683527, "city_lon": 45.7337091, "lat": 36.7706446, "lon": 45.7256355 }, "geometry": { "type": "Point", "coordinates": [ 45.7256355, 36.7706446 ] } },
{ "type": "Feature", "properties": { "Operator": "Mangalore Refinery and Petrochemicals Limited", "City": "Mangalore", "Country": "India", "Region": "Asia", "city_lat": 12.9141417, "city_lon": 74.8559568, "lat": 12.9836721, "lon": 74.8441763 }, "geometry": { "type": "Point", "coordinates": [ 74.8441763, 12.9836721 ] } },
{ "type": "Feature", "properties": { "Operator": "Marun Petrochemical Company", "City": "Bandar Imam", "Country": "Iran", "Region": "Middle East", "city_lat": 30.4472068, "city_lon": 49.0716096, "lat": 30.4851514, "lon": 49.094765 }, "geometry": { "type": "Point", "coordinates": [ 49.094765, 30.4851514 ] } },
{ "type": "Feature", "properties": { "Operator": "Mehr Petrochemical Company Ltd.", "City": "Pars Special Economic Energy Zone", "Country": "Iran", "Region": "Middle East", "city_lat": 27.5139054, "city_lon": 52.5758902, "lat": 27.5761572, "lon": 52.5325273 }, "geometry": { "type": "Point", "coordinates": [ 52.5325273, 27.5761572 ] } },
{ "type": "Feature", "properties": { "Operator": "Meltem Kimya", "City": "Adana", "Country": "Turkey", "Region": "Europe", "city_lat": 36.9914194, "city_lon": 35.3308285, "lat": 36.9998836, "lon": 35.1798967 }, "geometry": { "type": "Point", "coordinates": [ 35.1798967, 36.9998836 ] } },
{ "type": "Feature", "properties": { "Operator": "Micro Polypet Pvt Ltd", "City": "Panipat", "Country": "India", "Region": "Asia", "city_lat": 29.3909464, "city_lon": 76.9635023, "lat": 29.509183, "lon": 76.8646319 }, "geometry": { "type": "Point", "coordinates": [ 76.8646319, 29.509183 ] } },
{ "type": "Feature", "properties": { "Operator": "Mitsubishi Gas Chemical Company, Inc.", "City": "Merak", "Country": "Indonesia", "Region": "Asia", "city_lat": -5.9329071, "city_lon": 105.9997125, "lat": 1.2837379, "lon": 103.8521951 }, "geometry": { "type": "Point", "coordinates": [ 103.8521951, 1.2837379 ] } },
{ "type": "Feature", "properties": { "Operator": "Mitsui Chemicals Inc", "City": "Otake", "Country": "Japan", "Region": "Asia", "city_lat": 34.2376953, "city_lon": 132.2221691, "lat": 34.2065924, "lon": 132.2317143 }, "geometry": { "type": "Point", "coordinates": [ 132.2317143, 34.2065924 ] } },
{ "type": "Feature", "properties": { "Operator": "Mitsui Chemicals Inc", "City": "Rayong", "Country": "Thailand", "Region": "Asia", "city_lat": 12.6813957, "city_lon": 101.2816261, "lat": 13.7272404, "lon": 100.5299918 }, "geometry": { "type": "Point", "coordinates": [ 100.5299918, 13.7272404 ] } },
{ "type": "Feature", "properties": { "Operator": "Mogilev", "City": "Mogilev", "Country": "Belarus", "Region": "Europe", "city_lat": 53.8980663, "city_lon": 30.3325337, "lat": 53.8980663, "lon": 30.3325337 }, "geometry": { "type": "Point", "coordinates": [ 30.3325337, 53.8980663 ] } },
{ "type": "Feature", "properties": { "Operator": "Mudanjiang Refinery", "City": "Mudanjiang", "Country": "China", "Region": "Asia", "city_lat": 44.551653, "city_lon": 129.633168, "lat": 43.082431, "lon": 131.8558351 }, "geometry": { "type": "Point", "coordinates": [ 131.8558351, 43.082431 ] } },
{ "type": "Feature", "properties": { "Operator": "NEO Group", "City": "Klaipeda", "Country": "Lithuania", "Region": "Europe", "city_lat": 55.7032948, "city_lon": 21.1442795, "lat": 55.6743751, "lon": 21.2264227 }, "geometry": { "type": "Point", "coordinates": [ 21.2264227, 55.6743751 ] } },
{ "type": "Feature", "properties": { "Operator": "NPC Alliance Corporation", "City": "Mariveles", "Country": "Philippines", "Region": "Asia", "city_lat": 14.4929411, "city_lon": 120.5048792, "lat": 14.4961472, "lon": 120.6067817 }, "geometry": { "type": "Point", "coordinates": [ 120.6067817, 14.4961472 ] } },
{ "type": "Feature", "properties": { "Operator": "NPP Neftekhimiya", "City": "Moscow", "Country": "Russian Federation", "Region": "Russia and the Caspian", "city_lat": 55.755826, "city_lon": 37.6172999, "lat": 55.6508108, "lon": 37.7962359 }, "geometry": { "type": "Point", "coordinates": [ 37.7962359, 55.6508108 ] } },
{ "type": "Feature", "properties": { "Operator": "Nan Ya", "City": "Lake City", "Country": "United States", "Region": "North America", "city_lat": 30.1896756, "city_lon": -82.6392899, "lat": 33.8376701, "lon": -79.7633371 }, "geometry": { "type": "Point", "coordinates": [ -79.7633371, 33.8376701 ] } },
{ "type": "Feature", "properties": { "Operator": "Nanchong Shida Chemical Co., Ltd.", "City": "Nanchong", "Country": "China", "Region": "Asia", "city_lat": 30.837793, "city_lon": 106.110698, "lat": 30.837793, "lon": 106.110698 }, "geometry": { "type": "Point", "coordinates": [ 106.110698, 30.837793 ] } },
{ "type": "Feature", "properties": { "Operator": "Nanjing Jinling Plastic Co., Ltd.", "City": "Nanjing", "Country": "China", "Region": "Asia", "city_lat": 32.060255, "city_lon": 118.796877, "lat": 32.0803865, "lon": 118.7542412 }, "geometry": { "type": "Point", "coordinates": [ 118.7542412, 32.0803865 ] } },
{ "type": "Feature", "properties": { "Operator": "National Petrochemical Industrial Company (NATPET)", "City": "Yanbu", "Country": "Saudi Arabia", "Region": "Middle East", "city_lat": 24.0231757, "city_lon": 38.1899782, "lat": 23.9983606, "lon": 38.2361563 }, "geometry": { "type": "Point", "coordinates": [ 38.2361563, 23.9983606 ] } },
{ "type": "Feature", "properties": { "Operator": "Navid Zar Chimi", "City": "Khouzestan", "Country": "Iran", "Region": "Middle East", "city_lat": 31.4360149, "city_lon": 49.041312, "lat": 31.4360149, "lon": 49.041312 }, "geometry": { "type": "Point", "coordinates": [ 49.041312, 31.4360149 ] } },
{ "type": "Feature", "properties": { "Operator": "Neftekhim Sevilen", "City": "Kazan", "Country": "Russian Federation", "Region": "Russia and the Caspian", "city_lat": 55.7878944, "city_lon": 49.1233294, "lat": 55.7878944, "lon": 49.1233294 }, "geometry": { "type": "Point", "coordinates": [ 49.1233294, 55.7878944 ] } },
{ "type": "Feature", "properties": { "Operator": "Nephtechim LTD", "City": "Pavlodar", "Country": "Kazakhstan", "Region": "Russia and the Caspian", "city_lat": 52.2873032, "city_lon": 76.9674023, "lat": 52.373754, "lon": 76.898529 }, "geometry": { "type": "Point", "coordinates": [ 76.898529, 52.373754 ] } },
{ "type": "Feature", "properties": { "Operator": "Nghi Son Refinery and Petrochemical LLC", "City": "Nghi Son", "Country": "Vietnam", "Region": "Asia", "city_lat": 19.3286153, "city_lon": 105.8202234, "lat": 19.354996, "lon": 105.7739498 }, "geometry": { "type": "Point", "coordinates": [ 105.7739498, 19.354996 ] } },
{ "type": "Feature", "properties": { "Operator": "Ningbo Fund Energy Co., Ltd.", "City": "Ningbo", "Country": "China", "Region": "Asia", "city_lat": 29.868336, "city_lon": 121.54399, "lat": 29.66626, "lon": 121.473669 }, "geometry": { "type": "Point", "coordinates": [ 121.473669, 29.66626 ] } },
{ "type": "Feature", "properties": { "Operator": "Ningxia Baofeng Energy Group", "City": "Ningdong", "Country": "China", "Region": "Asia", "city_lat": 38.16443, "city_lon": 106.586163, "lat": 38.16443, "lon": 106.586163 }, "geometry": { "type": "Point", "coordinates": [ 106.586163, 38.16443 ] } },
{ "type": "Feature", "properties": { "Operator": "Ningxia Baota Petrochemical", "City": "Yinchuan", "Country": "China", "Region": "Asia", "city_lat": 38.487193, "city_lon": 106.230908, "lat": 38.4770945, "lon": 106.2292733 }, "geometry": { "type": "Point", "coordinates": [ 106.2292733, 38.4770945 ] } },
{ "type": "Feature", "properties": { "Operator": "Nippon Unicar Co. Ltd", "City": "Kawasaki", "Country": "Japan", "Region": "Asia", "city_lat": 35.5308325, "city_lon": 139.7029125, "lat": 35.5267188, "lon": 139.7781878 }, "geometry": { "type": "Point", "coordinates": [ 139.778187800000012, 35.5267188 ] } },
{ "type": "Feature", "properties": { "Operator": "Nippon Unipet", "City": "Iwakuni", "Country": "Japan", "Region": "Asia", "city_lat": 34.1667451, "city_lon": 132.2191641, "lat": 34.1667451, "lon": 132.2191641 }, "geometry": { "type": "Point", "coordinates": [ 132.2191641, 34.1667451 ] } },
{ "type": "Feature", "properties": { "Operator": "Nizhnekamskneftekhim", "City": "Nizhnekamsk", "Country": "Russian Federation", "Region": "Russia and the Caspian", "city_lat": 55.613196, "city_lon": 51.8469974, "lat": 55.6145001, "lon": 51.9260695 }, "geometry": { "type": "Point", "coordinates": [ 51.9260695, 55.6145001 ] } },
{ "type": "Feature", "properties": { "Operator": "North Huajin Chemical Industries Group Corporation", "City": "Panjin", "Country": "China", "Region": "Asia", "city_lat": 41.119997, "city_lon": 122.070714, "lat": 41.1926981, "lon": 121.9995269 }, "geometry": { "type": "Point", "coordinates": [ 121.9995269, 41.1926981 ] } },
{ "type": "Feature", "properties": { "Operator": "Nova Chemicals Corporation", "City": "Corunna", "Country": "Canada", "Region": "North America", "city_lat": 42.8847497, "city_lon": -82.450903, "lat": 42.8841772, "lon": -82.4013691 }, "geometry": { "type": "Point", "coordinates": [ -82.4013691, 42.8841772 ] } },
{ "type": "Feature", "properties": { "Operator": "Nova Chemicals Corporation", "City": "Joffre", "Country": "Canada", "Region": "North America", "city_lat": 52.334503, "city_lon": -113.535927, "lat": 52.3082144, "lon": -113.5510143 }, "geometry": { "type": "Point", "coordinates": [ -113.5510143, 52.3082144 ] } },
{ "type": "Feature", "properties": { "Operator": "Nova Chemicals Corporation", "City": "Mooretown", "Country": "Canada", "Region": "North America", "city_lat": 42.8418468, "city_lon": -82.4617364, "lat": 51.047377, "lon": -114.0846201 }, "geometry": { "type": "Point", "coordinates": [ -114.0846201, 51.047377 ] } },
{ "type": "Feature", "properties": { "Operator": "Novapet", "City": "Barbastro", "Country": "Spain", "Region": "Europe", "city_lat": 42.0360435, "city_lon": 0.1284404, "lat": 42.0063049, "lon": 0.1167559 }, "geometry": { "type": "Point", "coordinates": [ 0.1167559, 42.0063049 ] } },
{ "type": "Feature", "properties": { "Operator": "Novatex (Gatron Group)", "City": "Karachi", "Country": "Pakistan", "Region": "Asia", "city_lat": 24.8607343, "city_lon": 67.0011364, "lat": 24.8438776, "lon": 67.0270844 }, "geometry": { "type": "Point", "coordinates": [ 67.0270844, 24.8438776 ] } },
{ "type": "Feature", "properties": { "Operator": "OCTAL", "City": "Salalah", "Country": "Oman", "Region": "Middle East", "city_lat": 17.0193843, "city_lon": 54.1107505, "lat": 16.9395173, "lon": 53.9779541 }, "geometry": { "type": "Point", "coordinates": [ 53.9779541, 16.9395173 ] } },
{ "type": "Feature", "properties": { "Operator": "ONGC Petro additions Ltd", "City": "Dahej", "Country": "India", "Region": "Asia", "city_lat": 21.7129335, "city_lon": 72.582009, "lat": 21.6947038, "lon": 72.6333264 }, "geometry": { "type": "Point", "coordinates": [ 72.6333264, 21.6947038 ] } },
{ "type": "Feature", "properties": { "Operator": "OQ", "City": "Sohar", "Country": "Oman", "Region": "Middle East", "city_lat": 24.3500672, "city_lon": 56.7133258, "lat": 24.4900963, "lon": 56.6045314 }, "geometry": { "type": "Point", "coordinates": [ 56.6045314, 24.4900963 ] } },
{ "type": "Feature", "properties": { "Operator": "ORPIC", "City": "Sohar", "Country": "Oman", "Region": "Middle East", "city_lat": 24.3500672, "city_lon": 56.7133258, "lat": 24.4950223, "lon": 56.6065097 }, "geometry": { "type": "Point", "coordinates": [ 56.6065097, 24.4950223 ] } },
{ "type": "Feature", "properties": { "Operator": "Oriental Energy (Ningbo) New Materials Co., Ltd.", "City": "Ningbo", "Country": "China", "Region": "Asia", "city_lat": 29.868336, "city_lon": 121.54399, "lat": 29.868336, "lon": 121.54399 }, "geometry": { "type": "Point", "coordinates": [ 121.54399, 29.868336 ] } },
{ "type": "Feature", "properties": { "Operator": "Oriental Energy (Zhangjiagang) New Materials Co., Ltd.", "City": "Zhangjiagang", "Country": "China", "Region": "Asia", "city_lat": 31.875572, "city_lon": 120.556005, "lat": 31.875572, "lon": 120.556005 }, "geometry": { "type": "Point", "coordinates": [ 120.556005, 31.875572 ] } },
{ "type": "Feature", "properties": { "Operator": "Oriental Petrochemicals Company", "City": "Ain Sokhna", "Country": "Egypt", "Region": "Africa", "city_lat": 29.6724876, "city_lon": 32.3369649, "lat": 30.1055233, "lon": 31.3654674 }, "geometry": { "type": "Point", "coordinates": [ 31.3654674, 30.1055233 ] } },
{ "type": "Feature", "properties": { "Operator": "PBB Polisur S.A.", "City": "Bahia Blanca", "Country": "Argentina", "Region": "Latin America and the Caribbean", "city_lat": -38.7183177, "city_lon": -62.2663478, "lat": -38.7673717, "lon": -62.2868654 }, "geometry": { "type": "Point", "coordinates": [ -62.286865399999989, -38.7673717 ] } },
{ "type": "Feature", "properties": { "Operator": "PET Processors UK LLC", "City": "Dumfries", "Country": "United Kingdom", "Region": "Europe", "city_lat": 55.070859, "city_lon": -3.60512, "lat": 55.0590195, "lon": -3.652992 }, "geometry": { "type": "Point", "coordinates": [ -3.652992, 55.0590195 ] } },
{ "type": "Feature", "properties": { "Operator": "POLI-CHEM sp. z.o.o.", "City": "Blachownia", "Country": "Poland", "Region": "Europe", "city_lat": 50.78505, "city_lon": 18.96224, "lat": 52.0721229, "lon": 20.6136987 }, "geometry": { "type": "Point", "coordinates": [ 20.6136987, 52.0721229 ] } },
{ "type": "Feature", "properties": { "Operator": "PT Chandra Asri Petrochemical Tbk", "City": "Cilegon", "Country": "Indonesia", "Region": "Asia", "city_lat": -6.0186817, "city_lon": 106.0558218000001, "lat": -6.0364727, "lon": 105.9322052 }, "geometry": { "type": "Point", "coordinates": [ 105.9322052, -6.0364727 ] } },
{ "type": "Feature", "properties": { "Operator": "PT Lotte Chemical Titan Nusantara", "City": "Cilegon", "Country": "Indonesia", "Region": "Asia", "city_lat": -6.0186817, "city_lon": 106.0558218, "lat": -5.9778688, "lon": 105.9985544 }, "geometry": { "type": "Point", "coordinates": [ 105.9985544, -5.9778688 ] } },
{ "type": "Feature", "properties": { "Operator": "PT Pertamina", "City": "Plaju", "Country": "Indonesia", "Region": "Asia", "city_lat": -2.9997434, "city_lon": 104.8162784, "lat": -2.9902178, "lon": 104.8062603 }, "geometry": { "type": "Point", "coordinates": [ 104.8062603, -2.9902178 ] } },
{ "type": "Feature", "properties": { "Operator": "PT Polytama Propindo", "City": "Balongan", "Country": "Indonesia", "Region": "Asia", "city_lat": -6.3971917, "city_lon": 108.3682501, "lat": -6.3933768, "lon": 108.4065239 }, "geometry": { "type": "Point", "coordinates": [ 108.4065239, -6.3933768 ] } },
{ "type": "Feature", "properties": { "Operator": "PTT Global Chemical", "City": "Map Ta Phut", "Country": "Thailand", "Region": "Asia", "city_lat": 12.713219, "city_lon": 101.1685888, "lat": 12.7172462, "lon": 101.1952216 }, "geometry": { "type": "Point", "coordinates": [ 101.1952216, 12.7172462 ] } },
{ "type": "Feature", "properties": { "Operator": "Pakistan Synthetics", "City": "Hub Chowki", "Country": "Pakistan", "Region": "Asia", "city_lat": 25.0057964, "city_lon": 66.8201092, "lat": 25.0645103, "lon": 66.8745085 }, "geometry": { "type": "Point", "coordinates": [ 66.8745085, 25.0645103 ] } },
{ "type": "Feature", "properties": { "Operator": "Pemex Petroquimica", "City": "La Cangrejera", "Country": "Mexico", "Region": "North America", "city_lat": 18.0923018, "city_lon": -94.3603669, "lat": 18.1385761, "lon": -94.4672217 }, "geometry": { "type": "Point", "coordinates": [ -94.4672217, 18.1385761 ] } },
{ "type": "Feature", "properties": { "Operator": "Pemex Petroquimica", "City": "Morelos", "Country": "Mexico", "Region": "North America", "city_lat": 18.6813049, "city_lon": -99.1013498, "lat": 19.2554656, "lon": -98.4179037 }, "geometry": { "type": "Point", "coordinates": [ -98.4179037, 19.2554656 ] } },
{ "type": "Feature", "properties": { "Operator": "Pengerang Petrochemical Company Sdn Bhd", "City": "Pengerang", "Country": "Malaysia", "Region": "Asia", "city_lat": 1.3647023, "city_lon": 104.1111109, "lat": 1.3595791, "lon": 104.1708724 }, "geometry": { "type": "Point", "coordinates": [ 104.1708724, 1.3595791 ] } },
{ "type": "Feature", "properties": { "Operator": "Petkim Petrokimya", "City": "Aliaga", "Country": "Turkey", "Region": "Europe", "city_lat": 38.799561, "city_lon": 26.97074, "lat": 38.7878291, "lon": 26.9817393 }, "geometry": { "type": "Point", "coordinates": [ 26.9817393, 38.7878291 ] } },
{ "type": "Feature", "properties": { "Operator": "Petlin (Malaysia) Sdn Bhd", "City": "Kerteh", "Country": "Malaysia", "Region": "Asia", "city_lat": 4.507894, "city_lon": 103.4430001, "lat": 3.16194, "lon": 101.72 }, "geometry": { "type": "Point", "coordinates": [ 101.72, 3.16194 ] } },
{ "type": "Feature", "properties": { "Operator": "Petnesia Resindo", "City": "Tangerang", "Country": "Indonesia", "Region": "Asia", "city_lat": -6.1701796, "city_lon": 106.6403236, "lat": -6.1618732, "lon": 106.6194106 }, "geometry": { "type": "Point", "coordinates": [ 106.6194106, -6.1618732 ] } },
{ "type": "Feature", "properties": { "Operator": "PetroChina Dagang Petrochemical Company", "City": "Dagang", "Country": "China", "Region": "Asia", "city_lat": 33.189192, "city_lon": 120.103473, "lat": 38.731609, "lon": 117.514106 }, "geometry": { "type": "Point", "coordinates": [ 117.514106, 38.731609 ] } },
{ "type": "Feature", "properties": { "Operator": "PetroChina Dalian Petrochemical Company", "City": "Dalian", "Country": "China", "Region": "Asia", "city_lat": 38.914003, "city_lon": 121.614682, "lat": 38.973638, "lon": 121.645352 }, "geometry": { "type": "Point", "coordinates": [ 121.645352, 38.973638 ] } },
{ "type": "Feature", "properties": { "Operator": "PetroChina Daqing Petrochemical Company", "City": "Daqing", "Country": "China", "Region": "Asia", "city_lat": 46.589309, "city_lon": 125.103784, "lat": 46.4529531, "lon": 125.2001203 }, "geometry": { "type": "Point", "coordinates": [ 125.2001203, 46.452953099999988 ] } },
{ "type": "Feature", "properties": { "Operator": "PetroChina Dushanzi Petrochemical Company", "City": "Dushanzi", "Country": "China", "Region": "Asia", "city_lat": 44.328095, "city_lon": 84.886974, "lat": 44.356555, "lon": 84.874643 }, "geometry": { "type": "Point", "coordinates": [ 84.874643, 44.356555 ] } },
{ "type": "Feature", "properties": { "Operator": "PetroChina Fushun Petrochemical Company", "City": "Fushun", "Country": "China", "Region": "Asia", "city_lat": 41.880872, "city_lon": 123.957208, "lat": 41.8613056, "lon": 123.9075532 }, "geometry": { "type": "Point", "coordinates": [ 123.9075532, 41.8613056 ] } },
{ "type": "Feature", "properties": { "Operator": "PetroChina Golmud Petrochemical Company", "City": "Golmud", "Country": "China", "Region": "Asia", "city_lat": 36.406404, "city_lon": 94.928484, "lat": 36.6, "lon": 95.6 }, "geometry": { "type": "Point", "coordinates": [ 95.6, 36.6 ] } },
{ "type": "Feature", "properties": { "Operator": "PetroChina Guangxi Petrochemical Company", "City": "Qinzhou", "Country": "China", "Region": "Asia", "city_lat": 21.979933, "city_lon": 108.654146, "lat": 39.9087956, "lon": 116.3616928 }, "geometry": { "type": "Point", "coordinates": [ 116.3616928, 39.9087956 ] } },
{ "type": "Feature", "properties": { "Operator": "PetroChina Harbin Petrochemical Company", "City": "Harbin", "Country": "China", "Region": "Asia", "city_lat": 45.803775, "city_lon": 126.534967, "lat": 45.7587172, "lon": 126.7356319 }, "geometry": { "type": "Point", "coordinates": [ 126.7356319, 45.7587172 ] } },
{ "type": "Feature", "properties": { "Operator": "PetroChina Hohhot Petrochemical Coompany", "City": "Hohhot", "Country": "China", "Region": "Asia", "city_lat": 40.842356, "city_lon": 111.749995, "lat": 40.819036, "lon": 111.720779 },